organization_id,address_id,address,latitude,longitude,created,created_by,updated,updated_by,active
91f976a2-dadb-4370-8df0-98f6c1192bfb,0c505f33-226f-49ce-a215-a4cfd1e9478a,93866 Towne Street,57.37065,25.03106,10/11/2015,3e5f90ce-fba2-4c89-9891-fa71a396c1e0,,,false
90e9a66f-8a46-4851-8c09-69b2042e0a0a,af7989cc-ed9c-4f05-a298-156c9334d31e,07 Hauk Drive,16.41453,-3.67075,6/2/2016,d9e483b4-b874-4c20-a12b-52bfb442b796,,,true
cea006c8-705a-4593-a139-ad2f4804afc0,89a605a8-de64-4c4f-a351-9c65054408f2,40 Vidon Junction,41.56667,119.33333,1/28/2016,4610a585-d492-454a-b9ab-65c42eb7fa4d,,,true
7ad1c68d-f76f-4710-ad11-acbe3c4a8cd0,b8cb0d80-74ea-4f3e-8053-2bf85902575c,6 Mitchell Court,29.87056,118.29528,11/19/2015,1e80ac98-be4e-45f9-a7d1-6a979306fe44,,,true
04132431-5807-477b-999a-e38a47fa3d2b,2f137ca9-cde6-4dfc-be38-89da273a4f4f,09 Mcguire Plaza,,,9/6/2015,dd987a2b-67da-44d5-a2f2-66663ac05e98,,,false
e51fa5ea-ae95-4468-804d-d489bf5ae8f7,d073c50c-997d-4ad0-a3a3-feb6d5d88e53,5 Boyd Avenue,47.9167,7.2,11/13/2015,f9fceaf2-bf55-49e0-bafc-7e371dc6e3fb,8/5/2015,f68ac176-7a82-4faf-bd4f-70757a1935c7,true
fac63ac3-937c-45e5-bef3-33d0017315d4,003fb371-361d-492e-a494-aea889278ae0,6810 Hanover Terrace,57.6664,14.972,6/8/2016,ada5cad0-f1b8-4eae-8a07-d89116ae9c91,,,true
69bcccde-b55b-4bed-8630-9625ba58d1f7,0e48c148-858d-4a00-8492-cebf889cecac,271 Ohio Court,-18.41917,-49.21528,11/7/2015,4cb6e282-e461-4b33-88c7-e1fbe5bc04fb,,,false
61bbb375-843d-4879-84ce-ae59916873af,1ae242cd-5a9b-4578-a82e-aae7be488384,02639 Scott Place,45.30861,14.53028,7/18/2015,0f246858-b01e-4359-8a6f-d95e7a0a11ac,,,false
736056e5-6544-453c-839e-e31a3ec1c6cd,d27fbb52-0622-4891-9549-f888a2e5b7ae,7 Hayes Lane,15.81421,44.04085,3/13/2016,fc63d735-92e2-4f8e-9c33-9454f4222394,,,true
c012218c-f595-459a-9f7b-0561a9592d13,462e758a-bc4c-4ed0-8219-f1f6c5290a8d,6 Leroy Plaza,-8.17111,112.67748,8/24/2015,ead30872-7b74-40f5-872a-585fdcb332f7,,,false
ba17fd0e-d9f9-4c9f-a491-8af560b52cc8,c92f2adf-64fd-4cef-afc0-886e1a45931c,41 Johnson Crossing,30.09254,120.06633,6/15/2016,d3eda5cc-ae30-4ad3-b77e-a0008b586064,,,false
625e4706-98f9-423b-9d33-3879ed0d8898,f8984e72-c606-4c1c-b900-983375ac7665,01 Grayhawk Street,43.05,23.4,8/15/2015,d04c4803-c32c-47b3-8b31-81422bd37c68,,,true
401748eb-d074-4f84-8622-861a96f70122,e2e89ab4-c726-4b52-85ba-3287ea3fb39b,5975 Pankratz Park,-1.06344,34.47313,5/29/2016,520fa202-9bdd-472a-ae1b-c87639c07ef2,,,false
6a96892f-2f1d-437b-ba45-12e15f1cfcb2,ab2f3ccc-59fa-446e-9ab9-739f26700f60,20558 Bashford Center,35.56277,67.82191,7/2/2015,b0fb0ee8-4886-4b95-bb1b-64934eb79bfd,,,false
f9579625-94c0-473c-b3d2-8a4b1bdff74a,4e666122-1a08-4a47-82bd-e6fd3ffba557,37 Menomonie Point,40.89877,120.99686,3/14/2016,1318ba52-cbce-4932-9c6a-0c2a947a60a0,,,false
abcf2968-21aa-4c63-be58-65fa311e03bc,882099c9-0d88-461f-96fb-c3c35c849bc1,90957 Darwin Place,10.17793,-66.74648,1/8/2016,6adeaea1-694d-4de2-909e-1ffc7b035312,,,false
17727ea1-1e25-4169-b6e7-a14baef09bca,e7c64851-f1bf-4c70-988d-a53749c136c8,77 American Parkway,12.11381,5.92427,8/28/2015,227430d9-31da-462b-bfcf-4d04d196c100,10/11/2015,26083974-6a5d-4e88-b0ac-153408940be9,false
84ef9fc8-b00c-4e46-9a0c-43c88601fcd6,373f01be-3eb4-4463-9298-e0c0d2fdf490,29 Kensington Trail,,,7/29/2015,20fd9dad-3811-4044-8c74-48b359f52afe,,,true
740d8198-4fc3-47df-b586-25d0c976fa05,b17903b7-7b66-4975-af71-e1a074be8710,023 Esker Crossing,36.10306,127.48889,5/13/2016,76aa3ba0-bdbc-4bdd-8a81-d85b667bfcb3,,,true
5333a55b-e705-4cf5-af6c-5f5a6831c28a,a666aaa0-99b8-4646-8eed-755636545a45,322 Maywood Drive,-9.6936,119.4562,12/11/2015,fe43c4ba-7cf4-496f-a7b8-6c46fae42e09,,,false
4d17cecd-3077-45ed-91ac-437c38f1a0e9,ee2c6b20-3330-48b0-879f-3efc3ef092bf,54580 Ridgeview Street,26.21804,117.22912,9/13/2015,2bf387a8-f067-4d03-921a-65b76249f049,,,true
922abd5f-257b-4a4f-9f9c-9db3c551d280,5acd6e0d-0c57-4e6e-8993-1b2a4cb018e6,9964 Claremont Place,-10.74167,-40.36083,8/30/2015,dfd8834b-5d90-4a21-9576-04da955660c0,,,false
c829e5c8-43a9-4a74-b0c8-c4a207d178a1,264128ee-6a37-40a0-ae90-fd7a2364d9ce,7986 David Avenue,-19.69194,-43.92333,2/27/2016,f6fcb0dd-e06e-4343-bb76-64d64b34d8c2,,,false
740d8198-4fc3-47df-b586-25d0c976fa05,c86a7789-d699-4723-ad84-28853abbc2c6,3565 High Crossing Terrace,,,4/29/2016,32b1ba9f-ac4c-4711-87ea-1622e23d48df,,,true
cfd19275-008d-4ba9-aa21-d22bdde29542,003b546a-58b3-4a5e-aa28-4cae0df6acff,33 Badeau Street,29.60831,103.48603,8/31/2015,26a67614-10fa-4bd3-8245-ff35c3f5d7ef,,,false
7f6cdcf4-3a13-4d8f-aca4-22407e66a629,1c747d67-dbc9-4c8d-8663-ae090d2aa81d,756 Sugar Road,25.47693,119.11064,8/26/2015,de166b84-5d02-48cb-bd29-4b4851dbe03f,,,true
48e5897c-9daf-429b-8b1a-544d3a5701e2,cba63020-7556-4a3c-9c2d-d091270ac1c2,33720 Longview Way,,,10/2/2015,e1f7e784-d0eb-4cc0-ae02-adc6571fdf43,,,false
7d19dba5-0ac6-4e73-9ef4-bb596b992802,04816ad4-b15d-4dca-917d-06f7b838150f,4 Victoria Way,-1.80217,-79.53443,8/8/2015,4f263260-c04e-46b9-a7d0-eff5a38eafec,,,false
aff779d1-46cd-419d-a195-5bb531942203,5b734f23-c633-4472-a7cd-adaec7f381df,399 Summerview Circle,30.08274,106.32376,7/13/2015,1ee2a077-a466-44f5-9c7d-dd91ed463e6b,,,true
7c6e19bd-cb8f-4e04-9650-f1b1725e188c,588a1b5c-3f44-4238-b0d3-72301e082bc3,08 Barby Pass,20.95045,107.07336,1/2/2016,653fceb3-5a87-4b40-b7cc-e27bacd90f61,,,false
6b631e22-2b73-4a47-a030-9f9e08e6e891,911fa1cd-641d-460f-b2d6-8bfb27c415e3,80986 Jackson Road,33.71667,130.43333,2/2/2016,c1cf9386-0c4d-44af-9d36-134fce98b38a,,,true
87ca7ebc-2b4c-4139-95ca-1b871b31da59,61b7ae64-85a4-4ee6-9cf6-8074266e2f93,70923 Carioca Drive,1.531,110.3442,5/8/2016,47c1e4ea-2352-4acc-9d06-1087fda497eb,,,false
df5e81cf-1557-44ec-8600-dc9217a769db,5786ae9d-51c9-4413-acc3-961ed6098b7d,576 Lyons Street,9.7846,124.1745,2/12/2016,46d18f56-7e55-40aa-9da5-f22b6fe245f1,10/2/2015,eaa9d0a5-f4b5-4fb5-af14-3811ad54095a,false
ec8b7e86-cc31-46e4-ad43-a34b18545595,081a36d0-f8bc-4259-9dfc-2a52a6776292,97040 Monica Court,-6.6677,111.1028,2/16/2016,7ae55b92-812d-4149-a403-bef93039f1fa,,,false
d24decc3-b6ff-4c5a-9168-5439d3865e50,2f64259c-1bb0-437b-a0a9-1abcc276a255,868 Aberg Crossing,39.81364,113.04906,4/25/2016,0f246858-b01e-4359-8a6f-d95e7a0a11ac,,,false
0f719dfc-ae2b-434b-a9ee-69ede6222208,b1a4bc05-4bc4-449e-b8f0-a66c80f7b9d1,675 Fieldstone Court,,,11/14/2015,b4ad976f-9d72-4cd2-acbc-65e953a88723,,,true
f371befd-5a1a-4ea3-9ceb-e763f0629ae5,6a33000c-7da8-4ef9-9ed2-d7dcb3d64531,7 Brickson Park Hill,55.0218,82.202,4/29/2016,2fb5dfed-617b-4efa-89af-d08ca2a92c00,1/9/2016,a5947aae-1367-4ada-8225-6554a79f2dfb,true
718e8d39-d3ec-42f4-9dd7-dbe5ff31f3a4,6a4c94ed-e671-4ef3-bb29-c9f2b939f23f,59216 Monterey Trail,53.033,5.6589,7/2/2015,328133a5-72cf-44cd-8c62-36f6c7d34a08,,,false
53a8fa55-160c-455a-8845-9dd96f743409,3dea138f-60c0-41c0-afdd-002e8dbe105e,843 Rockefeller Avenue,48.15188,40.17925,7/24/2015,f2c3efa1-c8ab-4415-b30f-4edec8157373,8/5/2015,9d46f9c7-b99a-4662-bfc0-5e78ba8733bf,false
003ab329-52e2-4454-a77a-372e54b4ac52,70f89f48-2783-4432-8ad8-3a9b1f88b7c3,4694 Oriole Court,,,12/9/2015,9223509c-790d-4c19-bd9d-3a1f7748c33c,,,true
7d647d4e-2d26-45e9-9171-7b90477e1106,ab338fb0-0859-4646-b3bd-582116998643,70 Gina Park,41.2891,110.22423,5/21/2016,9d54108d-fdb4-4314-bb6f-4a92749e353c,,,false
7f465018-7bdc-4410-80de-5b6adab671c5,d904bc3b-aaca-487e-8f4c-d74b503ce97c,3 Crowley Way,-7.4574,107.6758,2/13/2016,b9027318-cdcc-43c5-a70e-8304b8e3a9d2,,,false
d64c437d-44e2-448c-a9b3-7762a95293a7,dc217c9f-7262-4c2b-9dd5-f1ff5c145312,41551 Elmside Point,55.6065,159.64266,6/25/2016,1d46eae4-b563-476f-964b-770745600a3a,,,false
462021fa-76fd-414d-be38-44ce8bbba537,8edd1335-37f4-447f-889d-05170582d8c1,72 Schmedeman Parkway,-22.76111,-47.15417,5/20/2016,7b42d25f-9eac-493f-a818-94b48496ba7f,,,false
22d99b93-5101-44c5-a507-0e16616c261b,773ad51a-174a-484c-932d-ab1db34219a1,51729 Warbler Circle,,,10/12/2015,d1dab693-45c0-487f-9bdb-09b5cf83adfa,,,true
905b338b-bab3-49e9-9e77-7f599a2236f2,edb2b591-c080-46b2-b8db-e2646001da8a,31 Lindbergh Parkway,43.78882,18.16049,8/11/2015,a75cc602-78ea-456d-9885-3aadadd5005c,,,false
090ea0f9-e11b-4194-b328-d9b9e567f6f0,621a6e49-b44c-4618-8422-e7e385066eec,17 Moulton Park,19.53784,110.53598,4/1/2016,f60f3c69-9ea6-4574-82b4-13e78f9e57bb,,,false
7cf30e4b-b595-41b0-bf98-8a0228bd4df4,2d74f19f-ffc3-466f-ad77-762f013a8b94,02383 Prairie Rose Pass,28.29669,107.07474,12/30/2015,62fd8a48-6331-4735-a82f-b7e1c19fd54b,,,true
b3745883-07f2-4a0a-94bc-950136f47ce8,53a70278-c226-499b-8d7d-00b1490a1e23,16 Little Fleur Alley,50.5877,13.80803,4/25/2016,0f246858-b01e-4359-8a6f-d95e7a0a11ac,,,true
88030737-b505-4d54-8fff-6b7cd9b1eaee,34ae489f-4611-4042-b34d-19df15507f5e,56320 Vermont Crossing,45.45727,28.29317,8/17/2015,2e10d64f-6586-459e-9410-e75c14e8e86e,,,true
cd884abf-8a99-4dc6-a927-6738d7ef497e,63919f1d-3a61-4635-9e96-1e3e22ef46f4,660 Rowland Crossing,41.4,20.2,6/7/2016,eda06039-8022-4be8-b730-a4846164077a,,,false
db4c40c3-6597-422e-8739-38630be0478e,3103f77a-bb98-4058-ae31-c9a7aa85ffb9,75445 Redwing Hill,27.92873,115.09341,7/12/2015,85cb8fa4-55cf-436e-b053-c012edb7ee55,,,false
3a929e40-5373-4bc5-8f11-68518104efbc,80f9d39c-36c1-4f88-91ca-1bd85c484587,08148 Hudson Hill,37.99471,23.34324,7/8/2015,278c8fb4-053e-4d4d-bccf-4f8fb9f85e74,,,true
37d19c69-015e-4fc0-8644-ae8123186a91,2e2cb6c3-5b1e-48d6-b7ca-b146ef3b5ba7,00 Bartelt Center,-7.3288,108.0784,12/25/2015,6c0cf2eb-9f6e-40e0-b9df-e6a3aafedb1b,,,true
403be6ed-c490-4cd6-aa56-5da5b83f3bdd,4ed0229c-59c3-4473-9437-1b5809609833,434 Dexter Way,,,1/28/2016,2519c192-033a-44bc-b41e-69c5e7324f61,,,false
ad6669a2-d67e-4cf0-a417-c215f2e26b15,e4608aad-0c96-4069-b039-c0a455f5db10,3650 Morningstar Avenue,43.28801,132.45586,9/1/2015,278c8fb4-053e-4d4d-bccf-4f8fb9f85e74,,,true
47c88eae-253c-45c1-ab92-200d1aa7bef6,3ac2484f-71b8-4f18-9a20-ec04ebf255ca,26 Everett Street,29.36097,116.48293,10/18/2015,47501f69-edbf-453c-b296-aa7dec786482,,,true
23060b42-5667-42a7-9a05-2d42017d5eee,f7a01794-52bd-4c5b-ad34-a71bf5cca48d,28 Veith Road,58.99004,23.24441,11/29/2015,671f16b5-d44d-4046-8ed6-8a507dcdb2bd,,,true
5ddde1a7-48bc-4431-8119-ae0671d4bed7,921e4a24-004c-4cb1-923a-0ebc1627ebf6,3 Hoard Court,53.50806,-6.4625,10/24/2015,d880d0b0-4760-4ecf-95a5-f155254f62d0,5/15/2016,3f43b46d-e781-4819-9693-8325adce62a1,false
ef42d7df-8d1c-45a2-9add-589cf2cff7b3,b4548b9b-e2ca-4602-ac08-b7a8d198e2f8,582 Dwight Lane,-22.52306,-44.10417,9/13/2015,f13f78fa-a0e5-4f14-9417-be335df4b4c3,,,true
3426935d-8813-428c-9c02-3eed4054e0f4,e405c98c-8e32-4dc9-8a87-32ece458fd18,34940 Duke Point,-7.0638,113.5187,3/13/2016,4034a42c-f2f2-40a4-9900-1211e0da8e96,,,true
9858809d-21e3-4b3d-b9f7-3f134c12020e,e65507db-bad5-44da-b47c-c0f6c8287d36,67959 Roth Avenue,30.15414,68.5728,7/12/2015,4c95fd00-b2a7-4fe5-b06e-f39854a9116c,,,true
9f8a6384-ef88-49b7-afc1-3252c24a9e3f,d73057f6-ed74-4828-98ba-c30e0bcf5e03,844 Judy Lane,45.48338,-71.66577,5/9/2016,fb057036-771b-455e-85f7-4641daa9a365,,,true
f371befd-5a1a-4ea3-9ceb-e763f0629ae5,aca50d56-124e-43d9-aed7-eb80e1c96b93,01241 Tony Point,17.28764,100.0867,7/21/2015,47c1e4ea-2352-4acc-9d06-1087fda497eb,,,false
4d80cf2d-294a-4105-bdf1-6ee8e9c565e1,c59b673c-65bf-4d45-a7c5-edd96ddc1350,0637 Stuart Terrace,,,5/3/2016,6dcec433-e61d-440a-aeb4-4d099cee9a06,,,true
26387442-c054-4b00-af6e-ab9815acae11,113ae4ff-7a57-4849-b646-c33d5f513c93,869 Heath Park,45.03139,15.91444,6/27/2016,ba2ee7ba-4219-473e-9e36-03be9f6c8017,,,false
5278dd31-8693-41de-a0ad-4676ab2faa53,a032819d-2390-41c6-8146-357c548b7a46,185 Ronald Regan Plaza,49.65629,18.8591,11/10/2015,549b204f-b287-40b0-81a7-35d780e788a5,,,true
aeb8575d-d3bb-461e-a674-d029d6cdc35f,52348b08-8112-4198-bd2d-aecad83b8b9b,96 Coolidge Hill,46.6667,-1.4333,4/23/2016,da01688a-3f07-41e9-b630-037ea74a7549,,,true
1893056d-53a4-4220-90fd-dce8185f94db,23278daa-f266-460f-acc2-688addba8192,14392 Packers Park,16.10864,102.25808,12/6/2015,8c47d4e7-7271-41fa-8cdb-34c803b8755a,,,false
faa2b6c9-f5a3-4f0b-a42d-63d981cc9fbe,45e059a9-4c66-44ef-8717-48fcc16ce848,809 Autumn Leaf Drive,,,12/11/2015,a3515223-018e-45ba-acd0-5e036e5ca130,,,false
b1aeae57-2735-4669-b7be-7a70ab07c5a1,52a0a24d-0ffd-4f1a-bed4-4f7e1f82fbd1,71243 Gulseth Plaza,4.6118,101.1135,2/29/2016,17e9bbb8-d61e-4b9f-9c6d-97375f165435,,,false
af9d3e47-db5b-43a9-884b-44118f4f7b60,1ceb59fc-270f-4100-966a-bac90291e5c9,00 Fisk Lane,-23.08639,-46.95056,2/24/2016,36e5b073-e63a-453e-8262-e4b88b7c6553,,,false
f1da1f04-ffc0-48f0-b457-925fe3e12e22,2bbff948-19b6-445b-beae-1d9e36e3f0a6,50 Sachs Lane,19.40552,-70.37985,4/18/2016,d7f75f43-0d95-4faf-b0cc-08f946a8fedd,,,false
918fff46-b33e-428d-b3db-d2c44f80ec4d,f77f4dda-7fe6-4c1c-9e03-17555085dcac,0939 Dahle Junction,29.93244,108.27732,4/15/2016,9ec4ec99-d0f6-4e02-9601-ab001df95ecb,,,true
7c6e19bd-cb8f-4e04-9650-f1b1725e188c,98163ea4-c0fe-4fda-8d90-aba7f4f662bd,9 Maryland Point,27.43753,115.49762,7/24/2015,e9530889-cb7f-4c19-930d-a4a47d3f68e2,,,true
83536131-58cc-4aac-ad95-f08db973062b,b38d65ea-7386-4a1d-8972-81f6e3ebb018,0776 Kedzie Terrace,-8.4448,115.3195,7/24/2015,37cfd20b-8064-409f-9765-7db0f3acc213,,,false
770b2827-f3cb-4f09-80be-6d4657261f49,cbb27285-6693-4773-835b-f196939ae1f1,76793 Montana Alley,45.4024,19.58814,8/24/2015,c5b1213d-4cc0-4658-93f3-743255f8482e,,,false
eb362fa7-81d4-4e14-bc33-07a865115aec,88f649a1-be93-46a7-a5a3-2bf7800cb062,02 Kenwood Lane,-32.83369,-70.59827,4/8/2016,e367f1ea-1bec-4c82-bf77-8603bd8403d9,1/9/2016,d79fa1bb-d270-4b89-bcce-a27b79c012a9,true
5023d166-96ba-4362-af49-29504f3c1a1d,c72734c1-ac76-446e-a8a8-3a1eeab3b583,57 Old Gate Drive,-7.3205,108.7513,9/7/2015,b1b64a6a-8f27-4f03-b083-98f54c1a74b0,,,true
ff0c22f0-1e50-43da-b5a6-bb9366b27a5b,a6b4e150-8c98-42ff-bd31-1da471ed9ed6,2 Fisk Crossing,23.66915,112.88926,2/2/2016,6c0cf2eb-9f6e-40e0-b9df-e6a3aafedb1b,,,false
c2017bef-b059-44d0-8cba-c9115aeb42c8,1f73805b-bc52-41c6-8430-037745c544dd,331 Mesta Trail,44.53302,19.7625,7/8/2015,bc2415f8-884b-4359-911c-249588dc3cce,,,false
2f6680ab-65fb-4372-8a43-7dace5356bd5,63fdf5d3-c8cf-4593-ae24-f5b61e9f7cd9,0 Maple Center,34.9644,103.66049,6/30/2015,70195178-c5fe-4c0d-a4d7-ff7b7b046b99,,,false
e17e5698-5943-45e9-8874-dfe95748988f,68c93f22-f794-4b30-bfdb-3a90ee6aca6e,96 Packers Circle,24.89896,114.87812,2/20/2016,824ae133-f490-4904-bf91-415b2a60f1c1,,,false
8332f8af-8069-4cf2-994a-7396c5641f69,9cd9a6b4-3ef4-4f3d-999c-5753f6d60530,24054 Hallows Street,31.90991,70.87741,10/8/2015,3fe80e0b-c21d-4e0f-96a2-d26690f98259,,,true
e272aaec-3b66-457f-8639-5fbb58d4cab9,bb79a397-d283-4e15-8158-5150b804aa1a,183 Towne Street,,,9/28/2015,2a2529dc-21ec-486f-8bf2-c66a86c59c6a,,,false
b9b93ef6-e41e-421a-8cd0-df83823bc2f9,21841277-f6de-45f1-9f91-9c4c2baca68a,59 Lakeland Avenue,60.2976,5.3308,11/2/2015,df3c3919-10bd-41aa-b05f-c3ebb8c8d8fd,,,true
f1da1f04-ffc0-48f0-b457-925fe3e12e22,d5492e57-e276-4967-9958-0e86019107cb,040 Onsgard Way,32.52332,119.60708,4/4/2016,56451914-8d0b-4cf5-88d6-e66dad794909,,,false
53d642b7-f3bd-4f8a-aa54-9176ee45f41a,50b8013e-740e-4617-9ed8-f5be449d22d8,28 Merry Terrace,-7.4024,112.7692,5/2/2016,6e81ed8d-f9f6-4790-a5d8-d7e0ad4e2d2a,,,false
372d63ef-6bd9-448e-b7e0-24dc2ad86733,0345ab5f-4b9c-4c9e-82c1-e22889c85c8f,6 South Lane,9.91861,-68.30472,5/17/2016,8e7ec0e2-326a-4977-8d2d-1ad4900033de,,,false
861e6a8b-e5a9-402a-9e70-131ddad31778,fc405e9e-a4ce-494b-8db7-734d8e8cd53a,3024 Dennis Trail,49.54152,15.35932,12/22/2015,46b8fdcb-d0de-45fb-ad4b-e3f3bd5910e4,4/24/2016,62f702ea-ec92-4351-8a9e-4d3c3ddbd96d,true
0b6d5ec8-0dc1-4272-9aa9-da889480762e,f1fb977d-acf9-4127-8eb7-0e217e36528a,31 Farmco Street,40.82975,46.0178,9/14/2015,e3a1a499-311c-4f23-964f-ff6f3d112051,12/12/2015,25b7ac56-3e4e-4dfc-a861-c822334ba410,true
a046e548-5274-4bfb-88b6-39d74a0a1524,6acecab2-8366-4416-a220-75bb8654f072,6 2nd Street,-8.5707,115.2389,2/1/2016,daa6e071-7b92-4e77-89b6-b1cd8b5174a0,,,true
770b2827-f3cb-4f09-80be-6d4657261f49,b7fc1908-5561-4962-bba2-adbdc2130fb5,76 Manufacturers Terrace,-35.61667,174.5,4/28/2016,2d70625c-4ec2-4b91-bab2-b95d95ad0766,,,true
097f6576-54c2-424a-8196-28c698d016b8,94cf7fab-0d70-4ac9-b13a-81ff405dd573,753 Hintze Junction,14.85,-88.3,12/24/2015,3594f24a-b6be-43d1-a457-b5ceb23b74ea,,,true
62baec83-63f5-445d-8a29-8c7c4923528a,8142f68c-b03f-48f5-94f7-653f5ca35472,4 Village Road,34.57484,108.35744,4/11/2016,181e4a18-a84f-4812-8f0a-d3820600a42f,7/18/2015,c2b9dceb-193c-487d-8da5-b700f365271b,true
2ecb578d-031b-4bbc-88ce-7f60ca373606,3b0aaecd-a70a-44bc-9065-d045d2b1c9f9,077 Express Street,-10.2272,123.5266,10/19/2015,a03e789c-9ba6-4cbe-8c08-68d7b216f867,,,false
2b00b723-3873-4b45-97d1-3026b37692fb,3d7ce085-860b-4a58-9424-ab956be6ddbd,85625 Mockingbird Avenue,43.23611,23.12583,12/20/2015,e2420436-c68d-475a-b69c-04ba6bd441ef,,,false
7a553a9e-1ec9-4fc6-a494-f4e2c3da15f6,c6f574ac-37e6-4757-8a5f-bbca1db4ee74,421 Vera Trail,-8.6343,116.3714,6/1/2016,8860a5a9-9f51-4792-850a-c90989cfb299,,,true
644bc441-98a2-4864-b023-40639f0614c6,f43849df-7ae6-49e9-8f25-e54a5b707553,4 Rockefeller Plaza,-27.03026,28.60061,7/2/2015,8b1bdc60-c74c-43b0-95bc-9455894f6d27,,,false
b0906a37-df23-4f58-a440-a5af23cf7090,cedb1a31-a7db-40ea-9c20-62b6fe678d22,40825 Shoshone Crossing,35.43889,139.35972,11/1/2015,ad10f972-4c81-40b9-a9dd-c1a96d098787,,,true
401748eb-d074-4f84-8622-861a96f70122,adfbe3ae-35a7-4268-aa70-7d4aabadc61c,25958 Starling Junction,43.2969,5.3811,3/6/2016,194102b4-3f7c-44f8-b017-62f76c8bedca,,,true
c206f29d-6ba1-4b38-824c-20d349528490,db4efd79-75b3-4b35-b5bb-0f98142d5c61,15056 Bultman Alley,,,8/24/2015,93190677-2938-438a-88ad-74140a710165,5/25/2016,5e85a8b2-29f6-476c-ade7-d6b3b61a31d9,true
e74acea7-30ad-4f25-b90a-35a8a5eb156d,38e2e7ae-9bb0-4034-be05-6e74d0d9673f,5 Pine View Circle,-8.6331,116.4463,12/10/2015,b5976495-b5f7-4bad-9dc7-221a953f26b4,,,true
9d05a947-5c6f-4036-b605-78d159da33ed,3a607199-c0fc-47c1-ad18-9123f84c0259,410 Dottie Center,34.97631,128.32361,5/15/2016,9c9ae010-b95c-4db7-978b-00ab98d2ee6a,,,false
2d14ac96-40de-4ecf-aae6-6ca2e0f7c6f7,dc9cbde1-ed12-46ab-9062-e5e85a652ba5,82618 Sage Avenue,,,7/27/2015,85703a89-af10-43a2-94fc-2dd8b8329b9e,,,false
cc6a554c-1684-47c5-a56c-9b2051651e4e,be28a475-2d48-4f9e-818e-a29691f78939,58 Corben Plaza,33.04041,112.0254,1/4/2016,15881c8d-0d7c-495e-8b07-44baa34adc4f,,,true
a1dddd18-16c9-445d-9a69-91970439ea01,06155504-bf5f-4c0f-b8e0-1dec614df32d,4126 Sheridan Lane,45.80306,15.71806,12/17/2015,70d162ca-6aae-4e01-a3f2-fb46072285d0,9/12/2015,ecfedf67-bbeb-4a95-afde-02d335c38df6,false
fa822230-6b6a-4c9a-b467-0c2929e3720b,d548a08f-0d47-4b98-a784-95e44d9f339e,4172 Sheridan Trail,48.48745,23.62575,5/16/2016,bf446993-5fe8-478a-b531-8ceb819d10ba,,,false
1ef3b641-0e6d-4a65-9ba4-fcb20e1ac782,3a311122-bcb0-459f-ad80-1ab7ca135051,3617 Sloan Drive,-21.97895,27.84296,9/1/2015,3e26fbf8-79a1-4485-aa9b-2af455b31cbd,,,false
42eab55c-23b4-44ce-aed0-f2dcba0c70aa,49a37b30-200e-4897-832d-2f460662d107,75 Cambridge Crossing,,,12/8/2015,41513219-973d-4f19-963c-9f80a6adae6a,,,true
8d4efbf9-9250-4eb7-963c-b51f7056c7f6,ed2b244e-fc7c-4f26-a634-1c8a7d2ddc95,13080 Spaight Crossing,47.8,3.5667,7/16/2015,85d4692f-2515-4401-8760-99db930a91b8,,,false
dda95863-5dfd-4dc7-885c-d712ec0d5b14,5a193b96-d31e-42b5-8a2f-1ff7d9f97a57,5673 Vidon Junction,13.51824,99.95469,3/13/2016,ef6e9247-8c27-4da1-a940-c2e63849c455,,,false
5af12238-cea3-4a95-820f-663aad08c9c8,e5748e5e-f77e-4cde-a84a-c8612c0e843a,2343 Center Hill,55.93333,37.83333,10/24/2015,f2c3efa1-c8ab-4415-b30f-4edec8157373,,,true
3b5d8185-5aac-41dd-a68d-53413ca75f97,25e79176-c9d5-451b-a2fa-e7f8a2a4332c,20 Norway Maple Center,-3.02028,31.89583,3/3/2016,c98bf3c7-d07b-4624-9454-b1a799b11b92,,,true
dda95863-5dfd-4dc7-885c-d712ec0d5b14,3229f3bc-b6f4-4a23-9b9d-e0f8e1ed4b44,9359 Waxwing Hill,26.56378,113.60096,9/3/2015,3aa7b454-202b-4c3b-bab4-25c2834917b4,9/16/2015,c81ef068-efff-46bf-9f79-0a255fd3f4aa,true
a5523454-7d5d-4752-8fca-d812353d5261,baebf7f6-e2f5-4b7b-8374-8688246d4fb2,8254 Paget Terrace,-9.91667,-77.68333,10/16/2015,0fe54679-8c5b-483e-8621-9f49716af3df,,,false
dbc6d050-dd6e-4d73-9ede-cddae1233ce4,5ad98a0a-42bf-44b0-ad39-15dd603a0e88,8253 Tennessee Avenue,40.7389,-7.8722,12/6/2015,93895b49-f029-4a06-b2e4-785488793de9,,,false
8b541541-b5f9-43a2-957f-31f0969fb69d,4342e812-97ae-4931-a74a-18f52c5c3baa,95758 Cherokee Point,,,11/27/2015,e60b58e0-1782-4deb-ab04-53d1b37de7b6,,,true
0e20fb9b-bbe2-4ffa-8979-8fcb3e2e1a45,75ecf7d2-ca30-4b1f-b6e6-9105e58f076e,85090 Katie Plaza,25.85592,115.12788,10/31/2015,0d5db4e4-bbc2-4603-b9cb-83f2d5e785d2,,,false
0f69becf-5a6f-4cc3-97ff-68b8c9d59208,4c92445b-924b-4bb7-8514-29a21c1924b4,80827 Nobel Plaza,-6.7896,111.4651,8/14/2015,7f987b14-993e-407f-a60a-d5383d6cf1ff,3/6/2016,916d515a-1782-4d4d-a76e-3be9026087d8,true
a1125070-7295-4059-9747-e217225fec96,c99b280b-403f-4e0b-b3f5-f729500bbf74,50275 Marcy Park,,,1/7/2016,b9cfa9b0-7459-4be2-b963-c2d91cfeaea3,,,true
71bd86c7-6614-462b-863f-8539a44f455b,ff373d23-5afe-40cb-bdca-644d405be4b5,528 Namekagon Terrace,5.4002,-73.33544,9/12/2015,086e5e71-ab7b-467e-b611-44f684f33a00,,,true
19de9151-faef-4daf-b338-95334588f88d,96a5e7b0-9278-488b-964f-03f30b3f6386,47 Petterle Point,44.2663,18.42961,8/7/2015,7db739be-0348-4323-8c67-df0aece53c54,,,true
35860c71-563e-4615-8353-98a02b6c53d4,de95b260-9118-43ce-b3e7-1b6f60525197,85887 Algoma Pass,48.5151,-2.7684,1/18/2016,46b8fdcb-d0de-45fb-ad4b-e3f3bd5910e4,,,false
cf2d8162-6c9d-431f-acf1-7e6340c5fed3,6e542038-8e56-47d4-9393-b3e476567710,42048 Lawn Court,-8.071,113.3245,3/17/2016,65072aa9-a31d-4265-9e32-5536467003a9,,,true
3eeabd28-123d-4fab-a31e-fe1612edc60d,4e828406-8ce3-481b-a284-90ace21a2ebc,504 Bluestem Plaza,-8.6515,117.4288,1/19/2016,3b22acf0-923c-4d24-87ef-e32b6ad184be,,,false
9b6561b1-516b-4b27-abd3-6a319d8e029c,af9712df-2702-45db-8ee9-47d0f120f054,6 Hoffman Circle,,,11/28/2015,227430d9-31da-462b-bfcf-4d04d196c100,,,true
f6e4ae8c-4701-4edc-92f5-9157b0c6ffe7,cea27c24-a309-437a-95ab-6cf6f6744ba2,1 Clove Center,-7.1327,108.1321,6/9/2016,c463b9f7-7314-4c6d-844b-237439dbf1de,,,false
ff4ea0e0-fc6c-4bda-aa6b-7d081c9429ce,709ceabe-c459-47da-901a-6cb19cff31d2,0 Scofield Point,24.84778,113.565,9/15/2015,455af248-a229-46d9-ab1e-7d40af71bd64,,,true
036be006-9a59-43a1-b4a1-980aa4aaab1a,bec1f943-2dd0-463a-b7c6-ed27f975b3f7,5 Warrior Way,25.77778,109.60028,9/19/2015,86126ae1-a04c-4dd4-a374-6c227561e09c,,,true
d8946c57-7b6c-44d3-823e-dd27b9972fe3,e0f9c50a-9489-49f9-9ac8-e107d35ec762,58 Brentwood Crossing,34.37639,108.18167,5/17/2016,e2def51f-4767-4e6d-a708-eafbb44d0dfa,,,true
879dfc35-c4b8-447b-bbd7-b1e82ba59c7e,4846687e-4e86-4838-890e-63e365abbe1e,095 Loftsgordon Crossing,-31.83125,-63.45016,12/16/2015,348e3ed5-a95e-470c-b13a-2720eafa5fb3,,,false
c309ae93-25ce-4b46-8587-fe5a6bdd0f09,a03cadb9-56c1-4939-8db0-0faa3d5f8383,178 Hoffman Circle,-7.0398,111.3171,7/13/2015,84977249-9546-4949-9ba3-8ab7f0001468,,,true
3595686d-356b-4afa-87ab-9c955b72eb72,3e3c9da3-f898-47c6-bf13-fc7d3094167a,9098 Loftsgordon Parkway,,,10/29/2015,e9896641-7be0-42c5-a36b-afeed4deee4f,,,true
744d526a-e559-4b42-b315-e9a43812ed7f,7f154ea7-5d3a-4cd5-a2b0-e4110057bada,7514 Troy Trail,40.71841,122.25624,7/27/2015,8b1bdc60-c74c-43b0-95bc-9455894f6d27,,,true
46b19d2b-7e83-4641-8e9a-03b357c3113e,14f13636-e4d1-491f-a7d7-9ebfd5fb6890,44 Bultman Crossing,29.86378,89.38268,2/10/2016,b8c28082-291c-4c9f-b7b0-e6801b922b5a,,,true
5cae2872-f9e5-45f1-bb51-3a754a4b838d,852bf908-5984-4c94-a05e-d6281857f92c,81858 Lakewood Terrace,47.08637,127.63418,9/11/2015,f1fa6dec-9e19-4ee0-b95f-90e9761b890c,,,true
43bc0bc2-5bea-4bb0-80de-04cf9e09d8a1,e4b02d29-3a2d-4085-9b7c-51844eb2f498,23427 Ronald Regan Crossing,29.74993,111.76877,12/22/2015,f8b11347-db86-4629-a9b9-e7924d295c27,,,false
e48e2fa2-9c9b-49a3-a667-51485f8ae126,6a17be9b-1219-43a4-be66-1a8452e49d93,0481 Arrowood Lane,17.06606,-89.15229,1/20/2016,a11e7b22-aa24-4b6e-9da9-735659fd40ac,,,true
0b6d5ec8-0dc1-4272-9aa9-da889480762e,d1e4ca1d-9e4f-48f1-9bf9-a05cef201400,82703 Moose Plaza,41.27,-8.42,9/29/2015,c56a8a6b-783c-4c3e-bc77-ffcae355c727,,,true
e8955c3a-582b-401e-8aba-bce94cb8cd77,489107ee-2538-4d9e-ac60-d6e33b9f8247,6368 Northview Hill,9.61389,6.55694,10/3/2015,61293efd-57ad-4131-a445-3423081f12c3,,,true
e6ebecb1-6d35-47bf-bd3c-a35ff0035ec2,d4c417dc-a0dc-47bc-b956-6a2868e45fb1,82 Delaware Road,,,7/2/2015,953fcaaa-9e04-43c9-b269-b3c7e548c71e,,,true
8d81cc8f-5388-430b-8cd0-29015c387a1a,6576a92e-997b-4743-88e2-5927b0c2a009,6 Longview Plaza,6.42639,101.82308,1/24/2016,aec0506f-2112-41a3-ad8d-44a2f457a441,,,false
67f292ab-576f-47dd-8041-4a7cafda8e23,cdc2a073-6bbe-42af-b10c-ffaf58f3af0f,7731 Waubesa Way,,,2/28/2016,409d7b5e-5a6f-4a0e-bc2e-441e07dddd06,9/27/2015,dfdee6d0-7e00-4a86-9672-b38010ff9ee2,false
2a7ed360-318f-4b48-8a44-e734a4221e4d,37634ee9-dc37-456a-b6a2-e91f78d15489,937 Dahle Terrace,,,12/29/2015,09654ae3-6b5e-493c-92e3-b03fc6077f5a,,,true
92a76b60-3cc7-44ae-9c58-1413e921e8d3,86a4a67b-569e-4aad-9ad8-4a6dd80e90a8,75 Moose Park,-24.19456,-65.29712,7/30/2015,18812d3c-cc33-477d-a9f9-df14ca74ef98,,,true
d4de4371-91db-4a67-a42b-4e07835a6f18,d958217b-c9fa-4a15-bd0a-daffe2b4ea05,59 Wayridge Circle,7.66667,36.83333,7/28/2015,67155de4-15c4-4515-bbc3-860e336faf7b,2/4/2016,92464d36-c9c9-4b23-bf29-ee2b2d21282a,false
d2b071e9-d06f-4165-a929-666ae70d5cba,c66de5c3-615c-4b47-ad47-0d0ecfc7974b,2 Gulseth Circle,32.2519,-110.82,4/10/2016,33664a4f-fb65-480b-8c31-fe3696bba165,9/6/2015,30224248-4f1f-495c-9630-266e74704c33,false
17727ea1-1e25-4169-b6e7-a14baef09bca,1d380d3f-b4a1-498d-9308-49085c7b5a21,4 Buell Street,8.1,-10.7,12/20/2015,16f20b2d-ce6a-4c33-99d5-d70530c85815,,,true
f6c7dc35-b768-47e8-97a8-336f18d7afc7,17a12744-f7fc-4e8a-9300-ae8ac06817a1,6462 Anderson Court,7.2083,79.8358,5/2/2016,7b99e747-82ac-484d-b620-51e83729137f,,,true
4d80cf2d-294a-4105-bdf1-6ee8e9c565e1,676adb96-d67a-4791-8708-1cc4227952d8,9 Florence Circle,39.64692,141.94057,11/23/2015,12d477ed-3632-48e1-9e1c-0c75135c8c60,,,true
3032a8a2-cd20-4e3a-9a86-9b4cfc7211a2,5e4ba370-0c3c-43b5-a2ed-cee8716c6c05,238 Fulton Trail,31.87974,119.59558,10/5/2015,9d9b20a5-3d5b-4132-818f-02833ee704fc,,,true
ddbc67a8-d7ed-4445-9bc7-75111a773c07,cf14778f-5590-4e56-afdd-d84431ad94b6,591 Kings Plaza,,,7/10/2015,62f702ea-ec92-4351-8a9e-4d3c3ddbd96d,8/12/2015,dc4dfefb-8376-45e5-afb4-8157262d31cb,false
f6c7dc35-b768-47e8-97a8-336f18d7afc7,d11aa79a-b8cc-4ae7-a071-b61642cf8916,5221 Shasta Parkway,46.62833,16.22806,11/16/2015,2ef5734d-a57d-4139-8670-da5c6e7cb96f,,,true
2c07895e-a8ff-4af0-a8f4-1056f0fba2ce,57c8defa-46b4-4771-9b0c-cb4f525d2c64,3 Milwaukee Road,-27.48299,-58.93579,6/22/2016,07cabfaa-4d92-40f9-87b0-14641b9746ae,,,false
fb9bb630-74fe-44f6-93fc-7b4a71d859e9,9acf5500-573d-4105-ad0e-1de5788b5f74,83044 Swallow Avenue,29.08727,117.68937,1/26/2016,106be70e-153c-411b-ac80-b4bffd96c542,,,true
0862b1bb-12fd-4d2a-b377-63caadf0add5,0d18faf1-233c-43ee-850e-7cce7685fa73,1253 Green Way,54.53921,17.75012,4/23/2016,824ae133-f490-4904-bf91-415b2a60f1c1,,,false
cade65d5-e37b-4bb5-8fd1-c002730d1ce0,d61c55e9-7a8c-40d9-a019-415b6d5b2492,63628 Westport Place,,,4/25/2016,07146dc7-f0bf-444c-9ccf-90b8a5a642e3,,,false
47c88eae-253c-45c1-ab92-200d1aa7bef6,75abbeab-0354-4902-a58e-71d4c7a6ab22,7581 Emmet Park,49.78904,13.73461,9/8/2015,0bbae017-e4eb-462e-8630-f87a82755104,,,true
3b770b04-130c-4f04-b6d9-2972fef45889,005ba4b3-5fff-4589-80b2-5fab44edb76f,09250 Oak Valley Park,40.37943,44.59828,4/19/2016,dd052661-f294-42a7-8b9d-bab708aea5ff,,,false
0045395a-656f-4918-815d-ea1c1bc9e934,8ffef137-c40c-4359-9cde-f839ed468056,793 Ohio Way,29.48543,105.7629,6/18/2016,67c50032-2fd8-475a-9416-2706c952b426,,,false
9840ba80-b25b-4c99-9196-87b494456dae,beff94dc-8226-4209-883b-0e888621a37e,405 Meadow Vale Alley,12.897,11.9304,7/11/2015,8c11f4fd-bd19-403e-a094-31e3b51c3078,,,false
5b6fdf4d-12c3-4f6b-b588-b39ed5e2f97a,4d549132-5833-4abf-8f91-f679cb838e6b,61 Aberg Avenue,35.2733,100.39765,4/18/2016,6e23ac8f-a72d-4d8b-b25a-9907ad6f8712,,,true
c332fc2c-1ee7-4500-8be6-fb8b1fdfaab6,709d3d5f-ee10-40f2-84e8-fae2b328d8ba,7279 Reinke Drive,49.70887,39.85922,3/4/2016,1885137b-e3a6-4956-9ff4-b97dbbccafae,12/7/2015,d9d24cb6-429c-4ebf-a8c3-a8843376bf3c,false
f0f6435d-02c8-4442-be56-cb9cd766cbf9,bf8f8d19-29a3-4831-9c7d-2bfef31ebc24,4 Fallview Parkway,49.3779,1.1047,8/23/2015,56451914-8d0b-4cf5-88d6-e66dad794909,6/21/2016,1363841a-d12f-4fa4-9a0e-057d4a405715,true
a44c5e09-671a-4404-9302-25c8b0efe08f,57225dad-a35f-44ae-af9f-e06894c6c6cb,32778 Burrows Drive,14.1,-87.11667,8/9/2015,3e04519a-ea6d-4193-828e-897c504772af,,,false
73661253-14e0-46a2-8db4-948afd2c1b3f,e6097320-ecf4-4779-b498-d977d61903ad,9 Calypso Center,-14.23361,-169.51444,9/20/2015,5e52592b-6736-45bb-bc4f-c72b91cb5848,,,true
3be92088-6c8a-4cb2-8fc9-8b85faf71463,23d2160d-c4c9-456a-8ad1-fe4f21a565db,3593 Bultman Lane,,,11/8/2015,c3a71b9f-bd87-45ae-a2ef-da5d9098b20d,,,true
d35edf44-ae6b-4d25-ab24-a5edd8d8870a,76a3c17d-caa2-4398-bd15-41e1197a4d80,17 New Castle Road,-6.9949,111.413,6/14/2016,81f677f3-953b-4825-b04a-107ac1e75858,,,false
07267285-8b60-4cad-b523-1db03e4773fc,e6c89d62-5873-48ff-8b01-ebda0e0aa466,41987 Jenna Avenue,-19.65,17.33333,9/10/2015,9492648f-c4ef-4b39-b17e-a1108f57c50a,,,true
15860108-3b3b-4d07-b626-3d4178eebd79,8eebbf6f-c613-4e23-9870-c8ccfee0425b,74 Rusk Junction,-8.4879,115.1696,6/3/2016,67a0f7b6-69f2-4b8a-9841-538f3ced7a9f,,,true
6bbd3bda-e957-4427-aefd-19435e980cc0,1e5f7bbe-d9b3-46bc-bd56-6c9481392716,63086 Glacier Hill Trail,57.33173,25.60947,1/8/2016,20fd9dad-3811-4044-8c74-48b359f52afe,,,false
959e769b-4de7-4d60-a477-0c61fe0b9d66,b2558618-7f67-4102-ad45-1c0d227157cd,20773 Graceland Park,-8.0722,111.9026,8/11/2015,37267bad-146e-4052-b95f-9f582267ea56,,,false
1b4af061-962e-4ad6-b574-33cc61ed4f18,c46cbe4b-c0c8-494d-8fc1-d086444bbbb9,8824 Blue Bill Park Junction,-21.93333,15.83333,8/13/2015,7db739be-0348-4323-8c67-df0aece53c54,,,false
28166750-ec16-4350-a3f4-96a21daa244c,9255b6aa-4afb-4078-8db1-4a692feecf2a,09 Banding Circle,29.50063,119.38978,9/1/2015,e367f1ea-1bec-4c82-bf77-8603bd8403d9,,,true
5cae2872-f9e5-45f1-bb51-3a754a4b838d,872c23db-b5a7-46f4-bfb1-d6875e40d6a0,84680 Waxwing Pass,19.9228,-96.9994,10/1/2015,2b565dcc-3886-48e1-860a-5fb738099bf3,,,false
53c1fb62-2e99-435b-b519-f589fd751eba,401825bd-f31f-48e9-aa22-eacb65385d38,9994 Milwaukee Hill,50.6436,2.9871,3/19/2016,3d0969f9-38a0-4c9c-a713-4cd5fb0f050f,,,true
25785cd9-3d12-4352-b272-829493a18b45,44f9f803-a115-4234-9880-c32920f4afcb,2 Moland Pass,48.5151,-2.7684,2/14/2016,d4d5cfdb-c234-4767-b3ad-ebf37c30b61f,,,true
f48e3b07-a4dd-4c65-9f5b-594c7e95245e,b09839b5-524d-4b7c-90bf-2303358907b0,52650 Claremont Way,-8.0639,112.6122,5/10/2016,a79e874f-130b-4660-8479-2687a681c0b2,,,true
ce8b17f9-d6d3-476e-bc73-6eebb070aee6,c157280d-a697-447d-8b62-74ed1e0ddeb8,15 Banding Alley,43.7031,7.2661,11/2/2015,c0320e7c-4f68-472f-985a-9d83326228d8,,,true
ccc03490-ec76-4b15-acd6-4a7eca09cc44,27c6f1b4-67d2-42bc-8803-72e37012927c,68849 Oak Avenue,26.42861,110.35972,8/8/2015,3507c6a1-adda-48c7-9fe3-daf43a83d5d6,,,false
6a96892f-2f1d-437b-ba45-12e15f1cfcb2,f9b715e3-1d92-470e-9bde-8173ea7daa5d,1875 Anhalt Court,25.34031,119.1364,5/3/2016,c9e202c3-2ea1-41cc-8e51-39d210bb83e3,,,false
67f292ab-576f-47dd-8041-4a7cafda8e23,02b6220d-0771-4897-a481-0e1ef888586c,5013 Hagan Street,40.22016,116.40616,8/24/2015,66b9eb1b-5766-4f13-bcbc-169684445f75,,,false
da3a25a3-efed-43af-a041-0e06b4b7cc22,5cabb5f8-195d-4f92-aa28-b70858615345,2060 Cottonwood Lane,26.1654,-80.2959,11/22/2015,b9c97eba-1f8a-4e89-b4d3-2b52b4a43b57,,,true
a1ff8ff1-7ca9-475d-89d4-8708ee0e8182,82fabdd8-46c1-4e56-844c-ff4fa205b9d3,1 Pennsylvania Way,41.6167,0.6222,12/5/2015,dcc701e7-8797-4f67-8d86-135e3d4bf9e0,,,true
2bdd182b-970c-4525-a3c7-73977b090dbf,cfd8c2f1-6b82-40a5-88fd-848f586f4bd6,38 Homewood Parkway,51.85006,-105.03443,7/27/2015,ea93421d-b7a9-4792-bf15-2ab2937f6e50,,,true
f9745580-19a7-4250-a811-91ee86c59fe8,4308e287-acf1-4339-87cf-c1ebffe3a7c6,2027 Annamark Alley,56.4125,15.9984,8/29/2015,41f0ce8c-5e05-436d-8a9a-dac03ce292b2,,,false
c085f232-cd69-4262-bfc7-5eb29cc8e245,41bd730e-239d-4d91-a463-c7ce811d79f3,56 Hollow Ridge Center,50.40327,16.39091,10/11/2015,ee844448-ef60-4e1a-85ab-015a62fb080d,,,true
39b7b647-e862-41b5-b144-1180d27f2b18,d3830e07-eef8-45e4-af24-b010a9cd018d,584 Superior Center,39.3874,111.19115,3/6/2016,2519c192-033a-44bc-b41e-69c5e7324f61,,,false
846bce91-2436-4544-8dfb-c28036bb7717,3da5974c-cf9d-4aa4-b0f1-ac4b6066dbc5,7453 Red Cloud Way,36.28861,37.08527,3/13/2016,92b85e4d-7bae-459a-942e-61e53dbb2c68,,,false
3eda7854-36fb-4aff-b3f1-0ec35204e002,80798cab-1541-43ef-a47b-f24303525527,6413 Loeprich Hill,24.12858,89.06573,10/3/2015,f68ac176-7a82-4faf-bd4f-70757a1935c7,,,false
bbefd664-8800-4312-9c1d-78bad64de5b8,1edb5ef3-0e49-4abe-96dc-6c2ed0a8781c,8 Grim Circle,51.05,3.7167,5/25/2016,8c47d4e7-7271-41fa-8cdb-34c803b8755a,,,false
037ecd31-f343-49fb-ae4b-6f7beb5d6424,f09760b9-f240-423a-bfb4-2885288e0303,91515 Ridgeway Circle,25.34031,119.1364,8/25/2015,54049bad-7970-4825-a5af-66a1dad4e66b,,,false
462021fa-76fd-414d-be38-44ce8bbba537,242cdfa7-6807-49b9-9f19-f8e50f91cc1f,6 Autumn Leaf Pass,-21.99611,-47.42583,5/17/2016,b65120fb-8afd-4666-8312-e11a92c0726d,,,true
1de09ef2-05c9-4d82-8cf1-f7daaf1f1831,38f7a327-136f-400e-a019-bac2a4d02a84,173 Hudson Hill,-10.7733,122.9872,10/9/2015,e6473e50-aafc-4173-bedc-7e163009d627,,,true
e78b43a7-7ee2-47ad-b5dc-8ae3a3b2b8fb,84544aac-45e6-493f-8047-8233e9db2459,9961 Forest Run Hill,-7.9908,114.4009,10/2/2015,9ea2ccee-64e6-423e-87b9-8fd9fba59a91,,,false
6b0b7b7f-0529-48bb-91f4-c789417ae0fc,aa2731b7-9820-4f90-a9ee-fc1f319d69cb,99836 Kingsford Pass,50.14557,12.64996,9/10/2015,021d8428-1330-4fa4-b26e-206c77184fef,,,true
b68dd07e-a106-44c0-b839-0ba0b4ee03d8,e4c3ba95-73e0-44f1-bba4-a9a90fc13bb1,59 Sunfield Place,15.84722,120.52417,3/27/2016,e9530889-cb7f-4c19-930d-a4a47d3f68e2,,,false
aecca9f3-b3f1-49fc-8046-4101995f0f62,a6d8782f-557a-40bf-a9c5-095b77823c8d,6 Spenser Avenue,27.91273,104.95047,5/4/2016,325eac0c-600a-411d-9d8c-fa830b3e3ff6,,,true
21bbe117-cfee-4858-a001-7b83a21c66f0,a649cf82-f084-4cc6-b17b-8797b09907fd,82 Sauthoff Alley,41.80694,126.90778,6/25/2016,07b8e573-872c-4d2c-aeef-048f9e82e4d8,,,true
aff779d1-46cd-419d-a195-5bb531942203,96db8b84-dc19-4397-8441-1ab7cc6fea99,977 Troy Plaza,23.88312,112.03639,5/25/2016,53dedb90-5a5b-497b-8346-38e7c69e3f4b,,,false
85dd5f02-3851-4023-b420-c2df41917853,00aa67cf-5ec0-4516-a5c9-1d00b90e3103,34940 Alpine Lane,-1.81563,-80.23308,1/28/2016,51689133-e69b-4db4-8db8-cecd08326f9f,,,true
7af748dc-13a4-41c1-b9bf-1595baee3b1d,236d5860-23ec-40cf-8e94-3a02007d8e98,97267 Sauthoff Way,57.04865,53.98717,12/14/2015,659ad37f-fb24-47da-bb0a-2d014e8c46dc,,,true
dda95863-5dfd-4dc7-885c-d712ec0d5b14,4e3db546-0385-40be-83c6-634aac5f4d2c,9 Fieldstone Place,-8.8025,117.7774,6/2/2016,5a772df9-6944-487f-baf2-c3f48e71b809,,,false
3a929e40-5373-4bc5-8f11-68518104efbc,b7490cdc-a105-480c-92e9-03bf5e5518eb,8 Menomonie Junction,4.71131,6.79084,8/22/2015,7352cd3e-c3fe-41b9-8404-2b3f3348fafb,,,true
9840ba80-b25b-4c99-9196-87b494456dae,11cf3a27-5c54-4ef7-a250-a15fda7f491c,596 Daystar Drive,-20.44333,-44.76583,8/19/2015,0f65681e-7ecc-456a-bcd2-4042fbf1774d,,,false
27409aa2-2aa2-416f-ad47-4c92408f31df,c27d7df7-37a8-4a16-bba2-bb89d7753b09,0 Kennedy Drive,53.3917,83.9363,2/23/2016,2457865b-fd5d-4da4-8ba3-e40ff3fbe995,,,true
6557247f-14b9-4b4e-93ed-5723d725e955,4819b324-bcde-434a-a875-e3f708531107,398 Fremont Parkway,39.0425,127.52389,3/2/2016,41f0ce8c-5e05-436d-8a9a-dac03ce292b2,,,true
e40a6c37-3299-4db4-9e82-1d008685a722,391288fd-2f6b-4f43-bcd9-9593ffbf4a6b,59 Marquette Pass,30.12248,120.53706,6/10/2016,ea8da975-245b-45c1-be33-777f0d8dc78a,,,false
3ded48b7-80f2-4b20-adc4-98912e177feb,2184208d-ee3f-482a-af72-3c9f697a00bb,93 Victoria Junction,-8.0438,113.2345,2/6/2016,400beb33-1005-463d-9ade-3c97f6c1459b,,,true
fc26b0dc-03fb-428f-8d38-a4fb74a3312f,0184d08b-907d-4036-a17d-119b1f22b746,43 Carioca Court,47.51943,40.8112,4/11/2016,8ecf90d5-0d12-434d-96d8-f0704faf722d,,,false
6af75029-9e8c-4886-81cb-ed6b8a0dadb3,c20e86dd-22b7-4a01-99f1-f399b639efb8,2110 Eggendart Park,24.8683,-105.1356,10/6/2015,cf709233-c0f4-4022-ae0f-6c298df552ea,,,false
9b64425e-120a-4d39-9d38-92722ac53f69,89a1e527-049e-45f8-a0e9-8071e394886b,79 Shasta Road,-25.095,-50.16194,1/18/2016,2dc18a97-08ff-40bd-9b0b-e8abcc2b57ef,,,false
7756c155-7fa4-45a7-b2ec-b462ad25d1f7,1ba8b60d-2f24-4a42-940b-e4683bab4a8f,53733 Bluejay Park,-7.8825,-40.08167,4/14/2016,9d8fc6e2-39f2-405f-bdd6-798a28efb304,,,true
1f531716-da19-42b5-a107-5c35e7bcfef8,68ab0bbb-355e-46b4-bacf-e695b1f4bd9c,7 Rusk Parkway,55.04329,43.24178,3/16/2016,060b81f3-bb66-4a5b-80ea-16b007f2d0db,,,false
3e56e5f4-ac29-45f9-a3cd-c18138d5e846,1933505c-1996-44f0-97cc-828cc21c4a01,07293 Nevada Avenue,,,2/21/2016,3290da8f-6c83-4a61-a901-e8b420dd2d4d,1/17/2016,9ca48103-13eb-4397-b246-4c779ab692f3,false
48d7e09b-30f8-44ab-9202-26b63856e969,2123cdc1-b8da-4b19-b238-a8b753940010,1 Vahlen Avenue,-17.46806,-41.87528,3/14/2016,a7c21c45-ab5b-4fec-b83c-b261a0ffd0f5,,,false
78427543-9b19-46e6-abe7-b577c2db9dda,62259916-3470-463f-af2b-cbc38f4dfb12,511 Meadow Valley Place,,,8/31/2015,7d2eee2b-f36f-4e67-b8af-dbb8a4dfdb32,,,true
5cecc7b1-9d67-4d44-84be-301bebfaa8a6,957597eb-070b-474e-b246-9c4855a3805d,46 Bashford Place,52.4828,48.2137,9/8/2015,fba7624a-5079-4831-94f7-983a62acb445,,,true
bb69a313-c0b4-419b-ae0b-a8e4d0a29150,16736892-5553-4fd1-be99-458234718cb8,22 Amoth Junction,31.05926,16.65905,5/2/2016,e2def51f-4767-4e6d-a708-eafbb44d0dfa,9/11/2015,62f702ea-ec92-4351-8a9e-4d3c3ddbd96d,false
b2abc84e-0cca-4e09-b3a8-f5ab4ed3fecb,0ab22370-14ca-49d9-a04e-ed0247f3928e,58251 Merrick Point,-8.3445,113.4296,4/1/2016,72a4313b-ccfa-40da-9179-9a70a79f9e85,,,false
fd0d60b4-a825-448f-a44b-8dcf0808368c,ffba6f47-5342-490b-86ed-992ad85a214d,0 Jana Junction,15.54783,103.02467,11/4/2015,173d9c03-b693-44c7-a4d1-ae5c2332de04,,,false
237ca4a9-e3ee-49c4-b9f3-ad2aa9c1f23d,76874bf3-e0d7-4164-96ed-b255c090dec5,930 Buell Terrace,-8.0116,111.891,6/7/2016,f439fbe9-bff1-4f2b-9448-f89ad4a82844,,,true
718e8d39-d3ec-42f4-9dd7-dbe5ff31f3a4,3ff933b5-9a4b-411a-967d-b72473030f3a,82 Hudson Junction,-16.47083,-54.63556,12/24/2015,a5950169-6528-451f-b0e7-be776fea4485,,,true
dbc6d050-dd6e-4d73-9ede-cddae1233ce4,c990c814-ff22-475a-a8f3-9099eefd1b17,72402 Hoepker Terrace,20.00054,42.6052,8/13/2015,b275b643-8fbe-4940-9245-adc0b03d356e,,,false
c2c178d1-e148-48f0-b3a3-5b268661571c,a5702858-69ea-4554-adb0-5f2879af6764,281 Surrey Terrace,29.60898,110.58568,4/9/2016,9e9d5a9e-4e44-4250-8803-f636028e5a70,,,true
0862b1bb-12fd-4d2a-b377-63caadf0add5,abeee4a8-c5f7-49ce-b434-ac8382717d35,59125 Johnson Street,,,1/25/2016,127ad711-2926-4560-99ed-f3772d4638fb,,,false
fac63ac3-937c-45e5-bef3-33d0017315d4,55dc01a6-dc56-428e-8bd8-caf71077668d,74 Miller Court,38.638,-9.0253,11/23/2015,14408811-7706-4b5a-946e-494c222d399b,,,false
bb165d20-0497-4825-acdf-f0bd04e48087,e7c2c5d4-58fc-41b4-9d32-f2ed57ea4fc7,0 Sullivan Street,38.0401,-78.4851,1/17/2016,bc460f5b-250e-4818-9c36-0429319298bc,,,true
61b8d9e4-6d87-4caf-b744-1190463f4d7d,8a06e158-2bff-4cdf-a0bf-b22575d7a0cc,96072 Carioca Way,39.9765,-8.5841,8/1/2015,7b4c06d2-ad77-4ddc-ad77-4469302f9d46,8/13/2015,2231591b-9551-4d72-80bb-48915c758f13,false
c06828f0-2730-4ad3-a059-1fbc95af14c4,79e031cd-00a1-4a0a-a60e-6ad084ce8d85,08 Ronald Regan Point,41.4375,22.64333,9/5/2015,e6bad644-dfc7-47fe-857f-5771ced380cb,,,true
459f1a48-1aa1-48ad-83e8-d9b59fbcb706,5a06cc68-994f-4891-8bae-d76ad55453f7,2683 Grim Terrace,17.6865,-100.32,11/21/2015,10bcac86-e0ea-4927-971c-5b2ecaf57754,,,true
4116282c-e1ac-4829-aebc-5e526265bad1,7fc926a7-5236-4b4c-b195-de2c592358fc,191 Blackbird Road,-33.8678,151.2073,9/10/2015,7676d7fd-701a-4183-9054-e0f554156e98,,,true
cc7b6ec9-0ffb-4d6e-af03-f7065021ce32,e6940140-1959-4219-a6e2-8f732fa538a9,08 Sugar Plaza,50.10065,21.48025,4/26/2016,5ab88f57-7fe4-46a6-b6cc-fcdeb016df82,10/2/2015,de166b84-5d02-48cb-bd29-4b4851dbe03f,true
2c45d031-da0c-4524-8eb8-ea9e29bd1a9d,70331ed6-ff1d-44fc-89ca-949f1cd0b877,09 Northridge Park,38.4111,-8.9056,4/3/2016,7f3f00e9-42fa-4eea-b83b-a506b2dd31d3,,,false
a0d8e0b2-3a30-4157-826f-af16ce6c5088,dd706dca-e77a-4da7-a425-ede4106cb5ed,28 Reindahl Crossing,-22.82194,-47.26694,4/23/2016,e1d1678d-f09b-44a6-a74f-9408c718ce1d,,,true
404fa99a-2ca1-40db-8834-1af7232c0e6a,926c940b-364d-419c-92b6-29930cb46c6f,98 Mifflin Road,27.32734,120.214,1/16/2016,c0f001d8-0230-4682-b157-429bab1dceef,,,true
20a480e0-694f-4ef6-b48b-10189250e1b4,a4097881-ce43-4f13-8e10-6fa6277c37f4,09 Mifflin Center,46.46667,102.28333,2/29/2016,ff3fcce4-30c4-4dae-8e28-8812d91888a2,,,true
713c66ed-ab49-4a7f-b248-fc939973579b,a5afd744-7ad8-4c28-9c1d-825e2400be3c,16 Evergreen Lane,,,11/6/2015,4ce3ddea-1b0e-46b7-b1af-ece8598b365c,,,false
8a04a5fb-c96e-466a-a52a-ae4306a7185b,f86db833-4980-416b-b0a8-90259cba037f,8103 Buell Road,-28.92322,-67.52253,2/14/2016,c3465623-1df1-46f7-bf07-77541db3046f,,,true
6b631e22-2b73-4a47-a030-9f9e08e6e891,e5f48264-0178-4c57-b802-cb3a42eab0b9,0 Pankratz Street,51.25464,32.4269,5/5/2016,c61be839-23e5-49de-b621-2d58614d9fc5,,,false
2d9cfe2c-8859-4909-bd6f-217c4c213ee3,b4dd52cd-d168-4350-85e9-b63e98875426,782 Dahle Road,1.89833,33.1775,7/11/2015,1318ba52-cbce-4932-9c6a-0c2a947a60a0,,,true
7aa1208d-93ee-4153-8ef2-c48d708d480a,9904a5d4-1c75-4271-bd3a-3fff0d5fad68,8684 Oneill Junction,26.9402,117.37372,7/5/2015,d79fa1bb-d270-4b89-bcce-a27b79c012a9,,,false
9bac013d-6189-47f1-9e8c-5f72dcf5d31b,fcbc33c3-c66c-48fa-9d76-a2bb16b81157,7271 Fisk Circle,38.45598,48.87498,9/26/2015,ad1bdd21-90f0-49e7-b7d4-0797a7eaec7d,,,true
e567e437-8bc4-4319-9534-f4758436d1a6,9d46b22c-28e8-48e1-af14-7ccbb531b312,15148 Kinsman Place,-8.1449,112.3086,11/27/2015,37267bad-146e-4052-b95f-9f582267ea56,,,true
77504086-d9dd-47c2-a879-17f31ab51c48,8df78c3a-d9c2-427f-952b-6dd899f9ec49,9 Fair Oaks Park,-23.81306,-47.71639,8/7/2015,09654ae3-6b5e-493c-92e3-b03fc6077f5a,,,false
5278dd31-8693-41de-a0ad-4676ab2faa53,fcbefe79-60d5-4489-a988-a2162278c657,8 Darwin Lane,36.75,138.36667,8/14/2015,ca6c2316-7e46-4c42-b630-1f3ff6c5403e,,,true
8bfab0f7-28e1-4bd4-b428-cab0fcbba242,5155975f-89cd-4d7f-920b-6bf50894ad80,718 Loftsgordon Alley,35.57757,111.22371,7/14/2015,701bc7eb-3da0-423a-8ea4-069205d39b3d,,,false
7b7c085f-e390-497e-9a7a-8172becf7119,c077c9cf-8268-433b-a368-f07710103776,8956 Hazelcrest Lane,-6.6739,111.091,8/28/2015,f60f3c69-9ea6-4574-82b4-13e78f9e57bb,,,false
f182f411-ee09-4218-bcb9-69b8d4ccf6ce,2530c862-64e3-4f0f-9e42-90485c8f857e,7162 Hansons Hill,-7.7169,114.0643,5/8/2016,dd21a8cc-1ca6-44be-8e41-7c01eca6ee10,,,true
dc932cbf-3dbf-4d46-908f-3bf6ba0ba78c,c4229967-812a-4c61-8d1a-8143b014b4e6,58663 International Drive,-26.45,31.01667,7/25/2015,a54969d0-fff5-4b81-b1a3-a0d89e3cf1ce,,,false
b0a4f516-57d2-40db-8e6b-73dbb6748fbd,89a780a1-d81d-4d54-aad7-13f39442961d,27459 Ronald Regan Avenue,48.70233,45.19798,11/23/2015,f2c3efa1-c8ab-4415-b30f-4edec8157373,,,false
b804f010-6965-4ebe-9833-ef0a5d07f660,3becb085-09c6-4370-bfbf-ef257651061c,153 Maryland Lane,8.45955,25.678,8/18/2015,a5947aae-1367-4ada-8225-6554a79f2dfb,,,false
4442bff3-11dd-4063-a500-fe415599ba94,58ea4093-66b7-409e-ae03-c63a89e91456,61122 Artisan Terrace,27.9843,-82.7813,1/16/2016,3290da8f-6c83-4a61-a901-e8b420dd2d4d,,,false
dc021493-6fa2-4e2e-bede-018ec0205933,0688e15e-9d26-4ab2-82cf-874a54a04779,48182 Meadow Ridge Terrace,38.638,-9.0253,8/13/2015,b9559fc9-48e4-441d-905c-1bf9b884d54a,,,true
bbefd664-8800-4312-9c1d-78bad64de5b8,2a9dd3b9-4b85-4bd3-b8de-c44ae1fd4cda,2314 Heffernan Avenue,18.04279,121.72325,9/18/2015,87c669ff-9a44-44d5-b948-425acf434e38,,,false
efd635a2-20e1-4c07-ac06-c917374bbc07,b0849750-de17-4b9b-8032-4e01f1df611d,2 Mandrake Circle,34.2119,107.7789,5/3/2016,721a1290-ce75-48eb-b918-972d039779d2,,,false
b299b582-fcca-4d3b-b161-1b5c2218a0df,9ea15660-ac22-4ba9-90ad-7a7917108370,2 Arrowood Center,59.1312,10.2166,11/9/2015,5a38ef87-3343-4d39-8a2c-8ea8042b58c7,,,true
c75392fb-39ec-46cd-9e5c-8844e68629af,69735e83-447e-484d-b9ee-2ba95df91e78,6 Garrison Avenue,29.77548,-9.16796,4/7/2016,ba2ee7ba-4219-473e-9e36-03be9f6c8017,,,false
c43dd7ce-a01f-48aa-8c79-1eb3e9b9512d,5f53b6f1-ba1e-4423-80a8-e2ef659a7c2e,855 Dorton Street,8.3,35.58333,7/16/2015,a95b51dd-155a-4e61-8975-fc504e6b197d,,,false
5ada2f6d-5f10-449b-965b-f5cbbcc1f8c3,edeffc34-4e5e-481e-8bb7-cf14f9fe32b9,472 Mcguire Street,45.02887,35.09174,8/2/2015,3ccee177-55dd-4d0c-abfa-b90c9c0b13fb,,,false
a1239272-e1b5-4e11-82b1-0bb7375f6155,40fdc067-04c9-4025-9c0d-022918d9d1c7,6 Ridgeway Hill,10.31667,123.91667,5/17/2016,e7a0b96b-a330-4534-9dbb-1ff11678cd90,,,false
401748eb-d074-4f84-8622-861a96f70122,3110947e-a351-4981-883f-2af67ef82ab1,9 Hollow Ridge Hill,-8.4403,115.5602,8/10/2015,34ca10cc-812d-4849-a4a5-f4fbef152f6e,,,false
02ba59cd-9cc5-4378-a038-adebc1624d6a,b37a3898-7dc3-4dba-a237-945b71316799,14 Armistice Alley,36.41528,128.16056,10/8/2015,0f3e1ec8-912c-42ac-89cc-1491f52bd155,1/8/2016,07b8e573-872c-4d2c-aeef-048f9e82e4d8,true
e5a2b076-06f8-4322-95d0-49aa88e2289c,ccdc72ca-0852-4801-995c-6a48b75e35d4,714 Sundown Way,35.4484,-5.09627,4/21/2016,ad1bdd21-90f0-49e7-b7d4-0797a7eaec7d,,,false
72ac00ac-ec79-4226-abd4-0dc233e10579,53368c96-363d-47c2-bd19-7834d6255f23,734 Spohn Place,,,8/31/2015,b1b64a6a-8f27-4f03-b083-98f54c1a74b0,,,true
d6b3981e-d4e3-49bf-98ec-a7edfa438d52,21f8bbea-3cfa-46d2-ba17-f6993371e1b3,9014 Granby Plaza,29.88371,111.45323,7/21/2015,dda2b07d-3d10-4476-895a-1be11b02d6af,,,false
58f6bad5-9257-42a3-bcdc-bdb425902a03,08fc1b82-73f4-44a2-8640-3b07d5ad27ee,62 Havey Street,,,5/18/2016,0977765b-3847-4cc6-a099-db26cee403c7,,,false
8d548a00-9833-424c-8113-690cc90f06f0,2ed4f71f-2461-4807-8d75-b4d93e3eb261,4 Dawn Crossing,36.16667,139.53333,12/22/2015,3be76fdf-6fe3-4629-ab91-ef4156e23536,,,true
b8739fcc-37f7-4085-8560-28d39ebf5eac,4b644279-014d-4c0a-bc90-68c48c3aef1b,98 Luster Junction,,,7/11/2015,8341970e-b020-4422-b7de-c4d29e799f98,,,false
c9ef4fd9-a334-4bca-bfe9-b84bc0029a76,5912a2ff-58ea-42cd-a7ae-a94392104cd7,80 Moose Circle,47.3199,127.1673,9/11/2015,47de5e1f-2298-4904-aaec-78e2953ed982,,,false
5b960781-19ae-4e1f-ba38-8992b2d8c5a5,13fb3879-6b6d-45f0-8f16-73ed3bc480c6,1 Northview Lane,,,12/27/2015,81e437f8-b76b-4baf-ab08-1e850b1b6db8,,,false
75f499f8-0480-481b-b9a2-8f8309b3ec23,9d07ae19-c5a8-444f-984a-5cb93c644553,97395 Garrison Way,54.97741,37.22449,2/19/2016,191b7b14-aed8-492d-834f-d1ed94cef778,,,true
61b8d9e4-6d87-4caf-b744-1190463f4d7d,fc766a14-0dbf-4c38-b30d-3ee5125ec934,412 Ryan Parkway,14.3254,122.7124,8/5/2015,c7c153ec-c987-4135-9e93-f158c5d3148d,,,true
adf9274e-8aae-4ee5-9533-384f773af1d3,a40fc6e7-a521-4962-9aa8-f6032ec3dd51,99 Springview Crossing,36.57561,107.29596,3/28/2016,2e05c2fa-b3ec-425a-874f-b88d37f91c5f,,,true
28d7d765-d8bb-4731-b964-6fe6fcd6c59e,9500f0c3-67e3-4aab-ac7e-ce20e646ada7,97 Debra Alley,54.00696,15.98751,12/6/2015,0d020bca-8e8a-4b7d-b1a4-9c488b9405b1,,,false
48fa0fb4-7299-4d65-bca5-764c6cb1ae65,b9eed1d9-46c1-43a5-bb9b-b3888644c8f8,29 Orin Court,57.21276,41.93012,6/21/2016,b3b0be52-1e41-4a4a-b13f-20ddacfc392f,3/17/2016,c312453b-bccb-4d39-8224-e859c1cf4342,true
06b24a01-cab9-43ee-991e-674fba99e735,e0508adf-e85b-455c-a60b-1959552427a4,61 Independence Hill,42.96044,19.5833,5/3/2016,33e535f8-2987-4a55-8d97-1abb379152b0,,,false
a5523454-7d5d-4752-8fca-d812353d5261,fc0ed636-6805-4194-8345-8e9f00e37767,7834 Gina Point,13.99661,121.30918,5/29/2016,1c150307-7a76-4a47-9ac8-c1ec2d4bd958,,,true
2c6f181f-fca0-4bda-9624-78d772f84e63,8c565299-00f1-4e17-a8ce-dd9d1ae43abd,02437 Dawn Avenue,52.19446,20.69592,4/13/2016,227430d9-31da-462b-bfcf-4d04d196c100,,,true
68b03498-22e3-4327-91d2-83825a7541b4,982af479-cbfe-4914-8e8e-753b9282974e,51592 Anthes Plaza,-7.3964,107.0945,8/25/2015,a35ef50b-04d6-485a-b783-21a2faa1fe26,,,true
53f92c1a-c1f1-4351-8129-6b38fdb8a9e6,626d67e8-e380-4870-a8e2-6b0941432f4c,5 Prairieview Center,-13.75861,-73.5275,2/14/2016,6677ea04-5d0d-43c4-86b2-be9d2f8c65c6,,,true
efc1ab33-bc13-422a-8250-33663a66567b,29c4c904-6f9e-4f8a-bdcc-214b1dd3a773,349 Pond Point,14.93333,-88.31667,1/23/2016,d1dab693-45c0-487f-9bdb-09b5cf83adfa,1/24/2016,c36d18d5-3641-46f7-bcee-ed777c5925de,true
1ab872e4-c40b-4bf6-8e9e-aa09e201ba83,c41d99e7-1344-45fe-bdd5-912b913b57ac,66 Hazelcrest Road,-7.23116,12.8666,3/10/2016,4f263260-c04e-46b9-a7d0-eff5a38eafec,,,false
cfd19275-008d-4ba9-aa21-d22bdde29542,35b7881e-68ef-482b-88c9-d91a3ad77754,14 Fair Oaks Parkway,38.3,23.5,8/4/2015,92110d9f-8b25-4a88-b3f5-b464154d209f,,,true
c91ea57d-f0f1-415a-89e4-00acebc6cd1f,5aecb7f9-6082-4d7b-8574-e877fe6ea94c,95 Emmet Road,,,5/2/2016,e083967e-1649-4b4e-892e-8e77de5be578,,,false
76ba612f-2334-405a-bf90-b88bbd965b2e,2d191cb6-46e9-456c-9256-6756f99929f6,41 7th Junction,,,1/6/2016,c8a1b99a-55dc-4a23-8b69-aa1b698c3b6d,,,false
0967663d-ea7f-44c0-ab83-80118ca1811d,4bf7cb3a-33a6-45c1-aaac-c1c502e48bcf,29 Chive Pass,44.17806,43.50194,6/11/2016,3565c238-5d24-47b6-99f9-ca77e8c75267,,,true
0cefcd86-baf7-43eb-a166-d0125e52ac50,94a8983e-b9aa-443a-b593-720dd21b3efa,1 Erie Point,-8.7417,116.8486,4/30/2016,c312453b-bccb-4d39-8224-e859c1cf4342,3/2/2016,7709e3ff-c7cd-4b19-8206-8905e6d1bc60,false
c829e5c8-43a9-4a74-b0c8-c4a207d178a1,19f4a846-685d-4e12-915d-2753d0984fbf,5 Westport Lane,29.39293,115.71771,2/25/2016,086e5e71-ab7b-467e-b611-44f684f33a00,,,true
c11aec97-ae4e-45fa-af2b-c347cd727af0,a2ea57b3-6998-4d1a-8b6b-7cc1e4cdedc5,906 Crowley Circle,63.21667,24.41667,7/5/2015,355ed912-33c5-4097-a6e8-419d3c91d164,,,true
da5d5260-c78f-4c2a-9b90-f6d676ec3ae4,9496db92-d61d-4bce-9b4e-a69fe80c45bf,820 Paget Hill,2.33022,-72.62765,7/18/2015,1885137b-e3a6-4956-9ff4-b97dbbccafae,,,false
79037385-5107-42ab-bfb3-93d5946fb10e,5995b40a-fb25-47c0-88cc-611eeb534efa,41 Eagan Court,-13.05694,-74.21361,6/23/2016,df3c3919-10bd-41aa-b05f-c3ebb8c8d8fd,9/6/2015,ecfa22e1-1525-4568-832a-c22d111b011b,false
003ab329-52e2-4454-a77a-372e54b4ac52,d3d2b74b-505f-4c71-9dbe-9ffa19893cbd,0 La Follette Street,4.2475,9.00472,2/23/2016,709fe9b9-96fc-4a32-a311-e5c0885ed8e1,,,false
4440ab1e-f245-417c-953e-c798663e9ad5,ce92004a-371f-45f1-972a-b28bd0331ec2,725 Fair Oaks Pass,39.3833,-8.2333,10/8/2015,8c11f4fd-bd19-403e-a094-31e3b51c3078,,,false
7daaaa90-6f01-4b1d-91d4-fca424f6a150,529788d7-140a-4ee6-bf3e-c26ac7d040e0,7 Merchant Pass,33.00959,113.03456,12/13/2015,47501f69-edbf-453c-b296-aa7dec786482,,,false
48c6a59b-1e22-40b6-b504-09660c93dcdb,964f3e4e-225e-4ffa-ac50-a4cd9f572f9b,0 Hermina Terrace,45.36678,-73.54917,1/31/2016,370cda72-fc46-4c74-a455-bc6500c87dcd,,,true
2a7ed360-318f-4b48-8a44-e734a4221e4d,93176205-efa5-4360-9937-0763c7376627,289 Barnett Court,-8.3501,118.7822,8/27/2015,2e416c36-680f-4ade-a403-70a668bd7803,,,false
74605342-5b51-4396-99a8-bbac0c1472a0,20cf30f9-b346-497e-96f3-f13bb1deeb9c,645 Di Loreto Drive,51.463,104.6425,1/13/2016,9cb9019a-191d-48c8-8cb9-38305b2b26b9,,,true
19182354-fdfa-41b7-b28e-26f6b4202983,d9504556-1a2d-4f39-bd30-4f47da7bece1,2018 Fieldstone Point,,,4/23/2016,2a2a5dba-274a-49e7-9677-6d5a268492f9,,,true
9f27380d-ba64-4914-a184-02e5aba63385,cbea7cd4-b2ba-4d22-ab97-d6d3f3ed6a5a,0 Waubesa Drive,24.98271,118.8979,9/19/2015,5fa60012-7484-47b2-97ac-92285036354f,,,false
c004795d-f52a-4724-904e-2acaba939d93,33f68378-67ae-4cf1-92d3-2b07ea570c06,70 Pierstorff Plaza,49.82226,21.39004,2/3/2016,086e5e71-ab7b-467e-b611-44f684f33a00,,,false
d1627031-4f7c-4449-adff-6af743887624,004a57be-e2b9-4f31-8c5a-c50fcb1407ce,923 Mallard Court,14.0965,120.80217,11/24/2015,3df16ddb-e3ea-4d40-abd7-047d02bda68a,,,true
683a44d0-5ca6-455d-965a-9a22661b71fc,10bec22a-7e86-4961-af54-da691fba262c,17 Katie Terrace,,,11/6/2015,b88101d3-67c0-41c3-b766-0f6c38edd095,,,false
9cc7429b-5d5a-4709-97f7-2a350cf19f9d,5f5a5cc4-a6ce-497b-bbbe-9341e702d702,266 Marquette Circle,13.95532,7.67122,4/20/2016,78237708-abe6-4127-ac53-b6039aee2075,,,true
736056e5-6544-453c-839e-e31a3ec1c6cd,7ead7b8c-c468-4467-9419-325939315c91,2122 Kim Hill,28.82244,90.04651,3/5/2016,ba46fd29-24f9-42c1-9d8f-762f930a236d,,,true
b37c2b6a-eb0d-48e9-8553-a0b4f7316cee,4781b808-c003-430a-9773-a96f9ebbd251,239 Granby Junction,-6.4127,105.8625,3/11/2016,7f1fb915-1c18-4a58-9e65-aaeed79b6e48,,,false
3c5ed508-b01e-49be-a590-80eb45bc580f,16f87286-f1b8-4044-89b7-340d9ca98879,395 Fairview Alley,-7.2028,107.9765,7/22/2015,8df73279-8cdd-454d-a1f2-b28c3a1b6917,,,false
b2441215-a33d-46de-b263-74e79783debf,1cadbeb6-0498-4d8e-bbe5-8e7d4e38eaef,6957 Sunnyside Park,-28.76659,28.24936,12/6/2015,fba7624a-5079-4831-94f7-983a62acb445,,,false
8262e7cd-2ec2-42a0-bd93-7dd07281fb8b,0968debd-98c2-434b-88c4-2fdac12e7905,8 Spohn Parkway,16.59888,121.18774,11/23/2015,8c4b6e6d-3830-4680-89ab-4f02eadf6c29,,,true
0ad290ae-dc7a-4aff-a7e1-0b11363fe1e3,31817c19-f96c-496a-9d6f-eadf154e2023,75 Transport Street,-6.6491,111.5473,4/12/2016,b764f9d8-ca51-453e-b6a0-5474ab41184a,,,true
403be6ed-c490-4cd6-aa56-5da5b83f3bdd,d585127e-b1f1-43fc-ab49-5e750a45ef9a,44838 Wayridge Terrace,40.4344,-80.0248,5/24/2016,eac86b5f-31f7-4016-81e9-32b53141646c,,,false
bd16f52a-8c99-4faf-995d-7f6b0e7951c3,605f069b-cdab-491e-8dfc-659fb593957f,83 Melvin Place,21.97473,96.08359,10/10/2015,949a4976-2762-4c53-bdf6-8fa038c2923a,,,true
2bf56ba3-19dc-4088-9151-b630f586295d,8fdc0699-7e1b-4b87-b433-f42223d3d97a,92428 Barnett Avenue,55.96056,38.04556,9/28/2015,ec9679af-37cd-4540-88e9-42cfabcfc834,,,false
73661253-14e0-46a2-8db4-948afd2c1b3f,de4b14aa-b421-487a-a9c7-e981530875e0,694 Waxwing Terrace,49.0981,2.5096,7/4/2015,46b8fdcb-d0de-45fb-ad4b-e3f3bd5910e4,,,false
6b631e22-2b73-4a47-a030-9f9e08e6e891,83dc357c-5b12-4f69-b3d0-f88b13e31220,7 Fuller Lane,11.30694,124.61056,5/9/2016,50cabf5e-2715-43f7-9b8d-f2963680c827,,,false
b8739fcc-37f7-4085-8560-28d39ebf5eac,e449a454-4568-42da-9053-75f8525f121e,53023 Ridgeview Court,49.79158,17.86556,5/30/2016,675e3c9d-8c69-4bcb-ba3b-7535aaa84e12,,,false
eae218f8-6eb9-4bb4-ad2d-b3d076e9b7ce,ccadeb33-a981-4ecc-a619-4d7c8b08b7b4,2 Amoth Circle,42.97444,140.50889,9/4/2015,1645be21-9e86-4178-a297-347e3effe8e5,,,true
18e6166f-a152-4ccf-ba39-6185fb07c51a,920bdba9-1b46-4ab5-bfdd-3ad4fdbaa660,55 Roxbury Road,50.7333,8.2833,6/8/2016,659ad37f-fb24-47da-bb0a-2d014e8c46dc,,,false
c42a8b0b-5e51-478b-9b65-6d147997aece,172f805c-3e07-4eae-be77-eb240feecaa7,2986 Clarendon Center,46.7833,4.85,12/25/2015,c2e6f6a3-873c-49f2-b1fc-621569200dc8,,,true
23483962-26bc-4920-8ec1-e82ae30161cc,4a4f1c4a-c22f-4537-b1ca-07902f1fdfcf,7169 Ramsey Hill,39.59056,117.35306,1/14/2016,20b5cc24-56a5-475c-8c85-f9928e28dcbe,,,true
b092484f-e8ee-4c8c-9345-07c75a7fd316,477bcbe8-3e55-413a-ae68-edf57d45876d,09 Novick Terrace,-0.27088,36.37917,3/17/2016,e3d46b9f-e8ef-4d8f-904b-cbd64d441864,,,true
1f531716-da19-42b5-a107-5c35e7bcfef8,921e1ad4-4ec8-440f-b617-2d5d22f5780f,3112 Tennyson Junction,,,11/3/2015,097f52b9-b5b1-4156-9acc-ecb5d089c684,,,true
4442bff3-11dd-4063-a500-fe415599ba94,f220301f-5608-443e-8a0f-3970f6c242ac,15 Dapin Parkway,-33.2863,-70.87562,11/9/2015,e248dd5e-786f-41ba-a77c-91728026ba2d,,,true
73c9a1e3-0ca8-4941-8fdc-e78ccc881092,f2ffca40-a20c-423e-a0c7-33e7aa1040c2,488 Annamark Center,-9.5972,119.5876,3/30/2016,07f554e2-1074-4402-a550-4ad0c8c7a003,3/29/2016,a1645855-9640-4906-85e5-c2cdb625a152,false
258314f3-c3a2-41fb-ac0e-cf84c1efe6bd,c85c43a4-7f38-4740-b76c-28776cd385e5,3 Loeprich Terrace,-7.2078,108.6321,9/22/2015,5a11b8f6-205e-4a6f-bb62-c0ddfda18aa1,,,true
fa822230-6b6a-4c9a-b467-0c2929e3720b,9dec84d0-7f97-46dc-8619-092c0823b577,63 Oxford Avenue,-36.02078,-60.0145,10/22/2015,a22d4e48-58a0-4f7d-83b8-ef2080d2943c,4/14/2016,67a0f7b6-69f2-4b8a-9841-538f3ced7a9f,false
c4b19a1a-69ec-45a2-8cb3-78ab7761523e,408f81c9-c37a-4607-81db-0a8b48e9be9c,3 Dayton Pass,27.20969,116.13118,12/2/2015,49654178-23dc-4ee8-a5d4-26c319be2fd5,,,true
e78b43a7-7ee2-47ad-b5dc-8ae3a3b2b8fb,25760616-3f84-4159-b36e-71d50bb8fb92,01 Ridgeview Pass,44.81167,20.51611,1/21/2016,8b3680c1-cb34-4e80-8677-2bf3c92574f8,,,false
c53a163d-bc5c-4acf-a23f-4497e7a05212,e4c36524-b448-419c-b106-eb57cbadb2ed,3142 Ludington Street,48.68611,14.57678,10/30/2015,8341970e-b020-4422-b7de-c4d29e799f98,,,false
f33fec9a-e96a-49ca-b126-d32c4cc4ca47,3f4d5177-e01b-4678-8b7b-1acc0bb22cfb,21668 Dapin Street,,,1/18/2016,dcda0ab1-84b5-4930-a149-a1e3bb1c2680,,,false
e7d2b221-542a-4455-ac79-e1461f478217,8dd60b0a-da8e-4c60-b5ce-56cd6c90bf04,89 Farwell Trail,1.7471,40.05732,11/19/2015,709fe9b9-96fc-4a32-a311-e5c0885ed8e1,,,true
c206f29d-6ba1-4b38-824c-20d349528490,67743f31-a697-4137-b904-e743f3622251,3 Paget Alley,40.83417,22.38767,4/10/2016,2e10d64f-6586-459e-9410-e75c14e8e86e,,,false
f174fbf5-4e47-4ab5-8825-61b3cc4d94eb,72790ed9-445b-4386-9441-af8e186c31eb,4 Sugar Street,6.99556,-9.47222,3/15/2016,745a4122-70c7-4df0-aa3b-9bddeb0a029d,,,false
d35edf44-ae6b-4d25-ab24-a5edd8d8870a,5e456429-c3db-4faf-aa66-389546db061c,6583 Amoth Parkway,-12.85,-74.51667,3/12/2016,ee006e90-1941-4777-94ee-7d805824d0d5,,,false
7db80547-40cf-4f1c-8535-279b3a4815dc,0c4b822c-519e-4655-82ef-466f705ad442,3194 Moland Lane,54.12226,17.98119,8/3/2015,6bb8e864-4223-4468-b9d3-a2904a78473e,,,false
8332f8af-8069-4cf2-994a-7396c5641f69,e09dbc64-ee3b-4ef6-bbb3-24fa93ae0246,362 Carpenter Place,58.38062,26.72509,1/14/2016,c3727e4a-cd17-40b3-863d-c2815e7532d5,,,true
4163a181-e529-45f4-9327-b2e42a523c55,d4f49019-6662-4f6a-a337-9bd835a339bd,51544 Orin Point,-7.02444,-37.28,5/13/2016,5c44690d-43b7-4bbd-bdec-54d2983f6b7d,,,false
d2a49c50-ebe3-4733-8a30-5ee250726cb0,fa56ebb3-b9cd-4c8b-986e-84878fa81beb,64341 Eagle Crest Lane,57.6488,59.5014,6/15/2016,0c8067b7-d27f-41f4-88c8-8de2175c7c49,,,false
3c64add8-2c81-457c-b5f8-1cc68c02d944,580c57de-5a47-4270-a1fb-de5b7bd2688d,53 Gulseth Avenue,41.40528,22.66528,8/12/2015,7711a67a-a305-4c3d-ae79-d0e57ad7b291,,,true
713c66ed-ab49-4a7f-b248-fc939973579b,69127176-7121-4e3f-a4ec-bc838ad3c54a,2749 Schiller Parkway,-8.6648,116.5571,6/26/2016,33441b0b-50db-4c8a-b39f-817784ed60f9,,,false
dc021493-6fa2-4e2e-bede-018ec0205933,5e75cd07-2fa0-4ade-a5ec-4edb9e974cd1,34 Eggendart Point,-6.988,112.8346,5/31/2016,26a67614-10fa-4bd3-8245-ff35c3f5d7ef,,,false
6121773f-8f89-41ad-bdc1-ba251391e86b,48559524-2fc0-4a09-b273-86d7361b50cb,39 Victoria Circle,48.8765,2.1897,2/9/2016,063ee6cc-891d-4b1d-b7b7-b0f8bc6a59d7,,,true
f48e3b07-a4dd-4c65-9f5b-594c7e95245e,480a19f4-867c-40e2-84d5-1cfb889bf918,728 Scott Center,36.85,136.98333,6/24/2016,ca31cd83-7d9d-4e52-a2d5-0c4cfb27a07f,,,true
84c91f14-8446-4068-8863-559bdd0183ea,2bb8e19d-be34-4c12-9f87-8d8c6001e8df,5 Sloan Hill,47.69173,33.25714,11/24/2015,0f24574a-fa49-4fd7-b1db-8e2f3571307e,,,false
1893056d-53a4-4220-90fd-dce8185f94db,2a49b9d3-e2b4-494e-a018-d451032d506e,251 Glacier Hill Court,-7.4109,108.4482,5/22/2016,1d32b397-bde2-4a75-b406-f426c51e6a0d,10/3/2015,ea222860-8648-4510-8f5c-23127f5a9ad3,false
2d74cd31-d323-4d54-a6ff-bed0d6113903,954abc48-8ba9-46af-be79-607dc717c908,87640 Tennessee Court,-4.42472,-41.45861,4/18/2016,87d77347-299e-4540-a5dc-70ad44171a1c,,,true
cd884abf-8a99-4dc6-a927-6738d7ef497e,bfb624b9-298a-4dc8-9e25-512d0d3490f9,868 Morning Way,-7.3065,108.8328,12/22/2015,f49e3bc2-82fc-47ec-94dc-d4be3554a4d4,,,true
b2ab5166-2f0e-40bb-b11f-f0629de30af5,dbac57e9-905b-44af-aadb-e5d8c49d7d45,1 Lindbergh Trail,39.64228,115.58571,10/12/2015,850e7ed3-b29a-46fb-ad5b-b28a8a5e0902,,,false
c17d90ec-a82b-465c-8b99-ecbc4dbedebf,b4e12da0-a990-4ddc-9f87-b369e1566a5f,71624 Commercial Junction,69.06889,33.41622,4/17/2016,786a91c3-91ab-4bbc-86ab-77b54a4e2b47,,,true
89d15738-6b2d-4a57-a9b4-c6ea639e9702,77859337-01df-469a-bf70-f53816d2ed90,7404 Novick Junction,52.2183,6.8958,12/19/2015,777273de-db4c-4bc9-84c5-330c8631079b,,,false
39b7b647-e862-41b5-b144-1180d27f2b18,b1f9b812-780d-4b26-9141-038a85d083f7,6100 Butterfield Drive,-26.07295,-65.97614,12/16/2015,cbef9328-1c64-4821-81b8-8bf12d680ce2,,,false
0ab2888e-92e3-4e18-8e71-d2b0dd8a4d34,6962d21b-0850-42b9-8f66-ed1d6e598a3b,63227 Fuller Place,45.49543,121.8142,3/1/2016,967af0b3-bb4f-40c4-b131-20254739e482,,,false
423d6f2a-0c01-4aa6-a66c-467f76478850,7c322fcc-0828-4bc8-be02-d616bb376fdf,3 Arizona Junction,24.69272,112.68466,11/14/2015,2ef5734d-a57d-4139-8670-da5c6e7cb96f,,,true
c36f575e-dc6c-4ffb-8964-2b2226de4c65,11a0ea6e-81e1-4dc9-95fe-18f71da50bcc,5 Northland Street,-7.1499,108.3043,6/6/2016,6893579a-939c-439b-8f80-3b4b364a96a9,,,false
0b6d5ec8-0dc1-4272-9aa9-da889480762e,69c5089f-2de0-4f5a-b5e5-e3fb2634bbeb,6751 Mccormick Alley,29.18713,110.12515,5/23/2016,46a90279-030c-47f9-95e8-bcb09993b63a,,,true
e7d2b221-542a-4455-ac79-e1461f478217,42297363-5729-40f5-8224-51dd1b09c826,78 Autumn Leaf Place,,,12/5/2015,67c50032-2fd8-475a-9416-2706c952b426,,,false
16968ae7-f098-4fdc-b209-fc2cb731da39,4d0806fd-292a-435b-974e-3149b337c939,43758 Dakota Lane,48.9661,8.4043,9/7/2015,7e515ac9-803e-419a-beb1-1205a0ef302d,,,true
e62cc567-aaf0-4f6b-856e-58914d911648,e11a158f-47ae-412f-b00d-f82b7cf55494,1 Amoth Plaza,-19.98083,-49.68194,2/20/2016,1fdace44-42e4-4415-8696-ffa6a23d60a4,,,true
bd16f52a-8c99-4faf-995d-7f6b0e7951c3,2ebe640a-e95c-463b-85d6-ad41f94240f6,6419 Union Terrace,41.84508,21.10538,3/16/2016,dc802d03-f1e5-46f4-9df5-f5264f5e7cbb,,,false
90e565b7-8fb0-4ed5-9469-6b24856676ea,c659b7e4-3560-49f1-baca-10134dd49504,4 Coolidge Avenue,19.11683,-70.63595,10/6/2015,028f0d69-8f4a-44e9-b17d-87bd0417a177,,,false
60815796-61a0-4367-9ef5-e0cc23ccc818,040843d7-504c-4445-83a4-e51ae6aebf8d,9942 Lotheville Point,3.65,10.76667,1/11/2016,ebe2af4a-c9d0-4317-831e-5fb4ed41666a,,,false
94245f33-094a-4c65-b26b-2ce410d9e0af,223faf53-316d-4b09-817d-c817d0ae0f3e,1843 Lukken Parkway,-2.7406,111.7329,9/27/2015,85703a89-af10-43a2-94fc-2dd8b8329b9e,,,false
5e432810-4fea-48f5-b5e7-960e5e8b2bb3,e6ba25b8-6120-422c-8801-67158ddb798f,45304 Texas Way,41.26,-8.52,1/17/2016,87c669ff-9a44-44d5-b948-425acf434e38,,,false
ccc03490-ec76-4b15-acd6-4a7eca09cc44,3736e8ae-4c35-4444-ad3a-416bbc83a31d,0 Sachtjen Crossing,36.73333,25.28333,12/19/2015,6ad8b0ce-e241-46cd-ad7a-079df6704cc2,,,false
5c09a17a-8dde-4bd7-be9c-d29350302069,6324fdd0-1a01-42d2-b846-af08df6f1cf7,9 Cottonwood Center,-23.10139,-46.72833,8/27/2015,41f0ce8c-5e05-436d-8a9a-dac03ce292b2,,,true
b2ab5166-2f0e-40bb-b11f-f0629de30af5,d3cb1a5e-0221-42a4-a961-d94bb91acc1b,35213 Crowley Street,-20.32972,-40.2925,6/23/2016,b601502a-0f2b-4669-811d-edfa39ddf60a,,,true
40bf483d-6497-4213-8eae-3b1721633218,b4ee7ebb-b380-48ab-a91a-8ee9737ebb89,804 Charing Cross Way,43.1558,-77.6142,1/31/2016,f8b11347-db86-4629-a9b9-e7924d295c27,,,true
ea0baf8c-64fe-4a28-9f08-1282ec958a3d,1b81b651-c088-4bfd-889a-cb995f277444,1 Fieldstone Hill,48.112,-1.6743,8/6/2015,9cb9019a-191d-48c8-8cb9-38305b2b26b9,,,false
7c9fc964-9ba8-49b9-a419-f36fde2e4669,83a37bfd-b241-4982-afe4-06118341d294,40026 Lyons Park,37.53735,120.59264,8/7/2015,6bd73e6c-cd56-4b82-814d-acf10471a7d2,,,false
e545509f-7cc0-402c-9171-24999f330ca3,804f1f9c-0083-4b70-8c14-46106a2668c4,0 Algoma Lane,-18.18006,-63.87552,9/29/2015,76cd473d-9cc9-4011-bd0f-245781dfd069,,,false
44c7fbe7-b7c5-4bdb-8395-38d771680d31,2f7921f0-d099-4ba9-9557-5e244a27b35f,59 Park Meadow Alley,-2.62833,-56.73583,1/22/2016,086e5e71-ab7b-467e-b611-44f684f33a00,,,true
0f69becf-5a6f-4cc3-97ff-68b8c9d59208,c71a19a5-c084-4fc9-bf92-8c62db0e7dc9,0 Crescent Oaks Street,50.6294,3.778,2/5/2016,3e7f3aa0-96be-494e-b302-0b1fa9bc1ea5,,,false
1ef3b641-0e6d-4a65-9ba4-fcb20e1ac782,c4af50e4-e5ac-472f-9d1e-b649cad8d981,7 Schiller Way,-6.9883,111.356,10/11/2015,653c2437-b098-41fe-a729-bd1c4d5b5d84,,,true
ad6669a2-d67e-4cf0-a417-c215f2e26b15,842ee94d-cac3-48fc-8827-8db55520c35f,0899 Farwell Junction,38.8933,-77.0146,1/22/2016,8853b0f9-6e3e-41e0-b85b-be1c58399e2a,,,true
c012218c-f595-459a-9f7b-0561a9592d13,63e83134-5632-430d-9c14-7a5dfbe6e0a4,42 Lake View Lane,1.20525,124.78218,4/10/2016,f323fead-bc40-4e13-a7da-e7fa2be9bde4,,,false
740d8198-4fc3-47df-b586-25d0c976fa05,ee63412e-3f86-409c-8e98-3ac6e2a383f8,19 Crescent Oaks Drive,34.0585,-118.3012,6/4/2016,12c46bb9-0b81-43ce-9fbf-7a6c7ac8fdac,,,false
878afb09-8565-479e-aeee-e64284c72724,00e15c86-c3bb-4e80-a6b9-68ee079f6591,17226 Carberry Alley,29.04855,119.73856,10/10/2015,1f1e5806-60e0-4b8d-b4f6-98a772cb63fe,,,true
67f292ab-576f-47dd-8041-4a7cafda8e23,75f61dbb-d434-4d02-a580-df7df4d7cdb8,757 Independence Drive,20.43671,106.29116,8/18/2015,86126ae1-a04c-4dd4-a374-6c227561e09c,,,true
0cefcd86-baf7-43eb-a166-d0125e52ac50,e6b8f384-03d0-43b0-bd89-812b5fcdc8c2,540 Village Green Junction,35.98122,139.74424,9/18/2015,a11e7b22-aa24-4b6e-9da9-735659fd40ac,,,true
c44f0ee0-dcda-44a0-a886-fed5be4ff17a,97b1780e-3215-437e-a877-a8141cd9a4c6,60549 Huxley Park,13.20583,-16.30556,12/9/2015,3fa1a902-c21f-4462-ab4b-5e2d357cfcb6,,,false
81100d81-269d-4b2f-b096-c3e0a461f354,7ade7962-ae6e-4939-8aed-0173dda94392,3 Brentwood Pass,26.86889,109.09528,6/22/2016,e92f4730-43e7-401e-ab1a-efee1e7e1406,,,false
8b2076aa-6f1c-4924-b489-896cceda27ab,9eae19ee-f002-435d-b90c-c9e90f1cbd16,6621 Graceland Point,50.0333,4.1667,6/29/2016,bed4d168-044a-48ac-8c97-6d6c00658311,,,true
bf092e03-aadc-4ec9-a01e-f6be953d0cc4,09b819dc-0b06-44de-8e38-7595b4b00cb0,68433 Ramsey Place,44.62133,21.18782,6/3/2016,3b4d400e-e55b-4377-8007-c74c4c2452e4,,,true
111c7832-f254-4b1a-b198-19b3ef631892,30676019-2524-4f5c-b4cf-2f1f8e5ddd5a,77069 Paget Place,,,1/27/2016,0c8067b7-d27f-41f4-88c8-8de2175c7c49,6/15/2016,6433dfd9-8c8e-428e-8bb1-2d424a34a1b7,false
7f8d9c27-1180-4d6f-bcfb-9f401e97168f,f8629778-5a76-446e-8730-b876d60e8a46,78680 Annamark Crossing,22.03501,96.45683,3/3/2016,f4906188-7ba4-42e5-bcbd-bc11b1b353f2,,,false
6e56e8d3-a541-4c46-834d-d284467ad3ef,f368c880-69af-4d2e-97a3-33d3c2a25407,8 Graceland Court,7.85,36.65,2/26/2016,1885137b-e3a6-4956-9ff4-b97dbbccafae,,,true
87816a78-2248-4d99-83a3-6c3093058266,30d7be7f-76db-465c-9d79-c2a2258f39cd,82972 Utah Road,-8.0894,111.4146,7/30/2015,66b9eb1b-5766-4f13-bcbc-169684445f75,,,false
b77b3315-49ce-4fb8-bf4b-3659a352f61f,af45d874-3f5e-4247-a81b-5116c5f1ef71,02 Union Street,-13.50914,28.15504,7/31/2015,db4fcf86-4706-408e-b07c-62bc0d6e7334,,,true
d292abfb-5673-4c33-b774-1a3b5a459f1e,03559dd5-b73d-4be6-95cf-90f63f723f1f,237 Springs Point,6.6925,124.67639,1/9/2016,bcc184d0-8ba5-4ef3-968a-fdd9434fa4a0,1/12/2016,ce472107-5592-4cb7-8cfe-74c1b8c305fe,true
80910870-c34e-4075-b239-bc8bcaedc6c3,92071ec8-aa77-46be-8af9-251879b59232,297 Dunning Trail,51.01667,116.51667,12/19/2015,9b61cd0f-a676-41ef-9dd5-0fff71866874,2/18/2016,9c9e2a38-d126-4d5d-a508-d29800b59489,false
5d23329e-436c-46da-a19c-8281a2de1878,5f484c1f-7385-4175-97b2-601003021b5e,33731 Schurz Plaza,38.15,-8.8167,1/24/2016,ad10f972-4c81-40b9-a9dd-c1a96d098787,,,false
c53a163d-bc5c-4acf-a23f-4497e7a05212,535eab9c-535b-4e2f-842e-23d56f1b81ef,07299 Sullivan Parkway,-7.3042,108.3456,5/15/2016,fccac72d-6db7-4bb3-b924-66ffd3e6db5e,,,true
87ca7ebc-2b4c-4139-95ca-1b871b31da59,966e9bed-b4b4-4033-974e-c3b70d57f676,376 Meadow Ridge Circle,59.6162,16.5528,4/15/2016,6b513d13-0313-4fce-9778-6d7c24728bfb,,,false
20a99473-64cc-46fc-a60d-eb6eb0d339e5,32601747-c513-45da-bfda-e11392e1747d,1931 Dawn Street,53.37483,-6.36336,11/29/2015,18c602a8-5b9f-4764-a3c2-1a86279c3e9d,12/6/2015,877421dc-e137-4d68-8e54-025dedde83b8,true
83f54131-4261-433e-b149-70733d8c074b,0155e2e9-1cbc-4df8-b566-731aa62c710a,0 Donald Street,49.20678,-122.91092,7/14/2015,e56cfc95-6c4a-4139-a516-2727ee852efc,,,true
80910870-c34e-4075-b239-bc8bcaedc6c3,b6302cd4-a43d-4f22-927d-037ad849f7b6,1 Mandrake Center,,,5/21/2016,87d77347-299e-4540-a5dc-70ad44171a1c,,,false
dc786de7-1bd8-4ec1-bc9b-067627c7d206,80d7e95e-bfec-4949-ba09-8fbe2e55a69e,8933 Londonderry Circle,-6.9634,113.4884,4/6/2016,d5b84dac-440e-4ac9-8526-feab7dc71f6d,,,false
0cf59b55-6729-4b76-9515-812be87d12f9,f8ce9ec5-4a13-4750-adc8-39be2bc95458,27480 Eggendart Street,53.36346,17.04082,12/2/2015,8d256623-a871-40e1-9cf9-ba77d1de1325,1/27/2016,9323ee06-bfef-4b62-857b-3de7f0c02b1c,true
b8739fcc-37f7-4085-8560-28d39ebf5eac,b7569065-d157-4f3e-951e-e6856d5e06de,9501 Columbus Road,11.04611,14.14011,8/17/2015,1318ba52-cbce-4932-9c6a-0c2a947a60a0,,,false
ae742547-6bdc-47d0-bf16-4b4b69873805,041dcf29-0f29-4797-9a82-55a33d7af76f,2859 Thompson Road,-33.41306,-56.50056,3/6/2016,15b0bb43-c912-4fb1-bd76-69cdcbde92aa,,,true
f9554384-fa87-46a5-ad20-5ca35981df41,bc2f50d1-dbb6-458c-a558-57ecb07c34c8,666 Lakeland Junction,60.5642,29.86232,4/10/2016,3e04519a-ea6d-4193-828e-897c504772af,,,true
5dd4bbf4-1f95-4c33-9554-cd7245328c86,c2facc6e-17ce-4185-ad51-18b9c606e8fc,45687 Michigan Way,54.11522,17.33634,10/13/2015,3d0969f9-38a0-4c9c-a713-4cd5fb0f050f,,,true
461ed26c-982c-4c61-986a-204843f3a9e8,19fd10c9-3b95-4fe3-8017-ca35bdc3a14f,323 Fallview Alley,26.66776,113.74971,12/4/2015,f9dfc906-80e3-4b23-ae0a-9befa8ad3ae3,,,true
e2fbcf8a-8419-4a61-9c7b-909f8423b8f6,f8d3ba52-acb5-497c-b173-6d1ba22c5c40,11 Colorado Trail,39.61611,106.87361,6/27/2016,85d4692f-2515-4401-8760-99db930a91b8,,,true
9e3fd059-a30c-43ce-8dea-54eccfa846b7,a7cf2317-4270-4efd-9148-0036a0e096a0,1063 Welch Terrace,3.1071,101.6083,8/2/2015,75535a9c-f0bb-4011-9124-199d6c625974,,,true
96048ef9-c464-48bf-942e-7d11bd75e15c,d62060e4-69ff-4891-b3ab-763b81d879a0,195 Fieldstone Way,17.7159,121.81135,6/15/2016,005a611f-c024-466b-982f-8ff45fb0cac7,,,true
adf9274e-8aae-4ee5-9533-384f773af1d3,2ffe8377-6351-4065-95e6-9027bbb0ca95,55373 Golf Course Point,-34.17083,-70.74444,1/1/2016,721a1290-ce75-48eb-b918-972d039779d2,,,true
91757eb2-59e1-48c0-832c-774a91c632c6,466ba96d-e2c6-4c91-a041-e72bdbb08dfc,5 Fulton Alley,22.90725,89.21954,12/29/2015,dcda0ab1-84b5-4930-a149-a1e3bb1c2680,,,true
849dce73-b042-4896-99dd-3111bf8a8a14,ee025b00-6e71-4521-a48a-5faab429aed2,448 Anzinger Alley,,,12/8/2015,fb15fff7-b44c-4111-a9cb-3ec3c339cdc5,,,false
5cb9a3df-d0e3-498e-b3b1-6ac2ce0d6526,22bd92c2-6939-45f1-82e1-2f1f036b2c2d,390 Chive Avenue,15.39632,-90.56513,9/15/2015,2b565dcc-3886-48e1-860a-5fb738099bf3,,,true
2b7e0adc-beab-4c03-b3eb-a7ef4961ff8d,fabe54a4-12e5-4a90-9171-f3e44cdfb37a,1 Forster Lane,24.74241,67.58565,3/2/2016,26709622-5ac5-43ad-8935-459dee2f7d2b,,,true
5b960781-19ae-4e1f-ba38-8992b2d8c5a5,ec7909f4-d0bc-49f4-bbdf-51a08e84be35,29 Burrows Circle,27.79642,114.44316,1/1/2016,15881c8d-0d7c-495e-8b07-44baa34adc4f,,,true
3aa33ad7-286e-4f4f-a2e0-5e583c7b9d34,d092d151-ee40-4ab5-a638-9c0ef2e0cbdc,15125 Amoth Terrace,48.9881,2.3016,6/29/2016,f5823bb2-5f5d-41ff-9804-e63f020be642,,,true
823cf0a1-0d56-42bf-a6c3-429e80755fe4,804f56f8-8601-49aa-b971-77ad091f0187,2 Oak Valley Center,16.07,120.4025,10/5/2015,c54efbad-ce65-457b-9cf9-4f37e3c79d97,,,false
c7c5fe27-90ae-4510-acfa-6b0e79821e83,735c0c1c-ce26-4e3d-a238-b03181eca675,39 Shasta Terrace,24.33988,115.69706,7/25/2015,0ac006fb-f1ce-4f19-bb11-615507e0ddcb,,,false
2fdcc9be-bbab-4dec-8d19-840c2264fddc,d179cb33-fa5a-4b22-8b7d-e92ae2357f28,99 Buena Vista Junction,-7.1637,108.8172,8/21/2015,517e21ea-94eb-43d3-b3c3-8f31ad4f3619,,,true
3ec34ccd-ff34-4f3f-b984-d79259202cd0,688eaeff-4847-4d60-b2c8-46c5d5f15318,4027 Vermont Court,15.3921,120.94084,5/21/2016,36e5b073-e63a-453e-8262-e4b88b7c6553,,,true
16b2236f-2b45-4164-b89c-79c91c1ac35a,86b7c250-6092-4736-8373-978388d4d517,30826 Moose Center,20.62951,110.3698,1/3/2016,3290da8f-6c83-4a61-a901-e8b420dd2d4d,,,true
3eeabd28-123d-4fab-a31e-fe1612edc60d,e7d1379b-4fd9-486e-98ce-103e144e5b46,233 1st Park,16.49333,102.43339,5/21/2016,8cd6758f-927a-423c-a6c8-6833e0a89d10,,,true
63ba920e-d1df-43ac-9d90-55b91657468a,5d2f74c9-7f65-4be6-bffb-d7ff6bfc2611,5 Eastlawn Avenue,-24.02591,25.48976,4/6/2016,2b565dcc-3886-48e1-860a-5fb738099bf3,8/17/2015,8a2db34f-4c70-4b4a-9617-da33b1b2286a,false
922abd5f-257b-4a4f-9f9c-9db3c551d280,3ef65066-b6fa-416d-9bf4-5ef91f2df2b0,83 Coleman Junction,45.04327,18.66996,9/24/2015,1d55720e-f77d-4443-b7ad-bab88f0e9d00,,,true
598e2caf-bedd-4f71-ae64-37397565676d,08d43562-f9b2-42ea-b010-acb371109fdb,7584 Weeping Birch Hill,,,12/23/2015,824ae133-f490-4904-bf91-415b2a60f1c1,,,true
7c9fc964-9ba8-49b9-a419-f36fde2e4669,21be1ab2-779c-45fb-89fc-6c6877943bd6,1819 Mandrake Center,-15.71667,46.31667,4/8/2016,8900e3c2-0431-496b-9666-a4a26fc73034,,,false
e17e5698-5943-45e9-8874-dfe95748988f,94fac4f8-d7e6-44ec-99ba-070bd4dce14a,7 Prairieview Trail,36.89095,38.35347,6/5/2016,9a1b702c-0309-44f4-b850-714cb8d10139,,,true
57b4935e-a669-4db2-900e-27f4cadf08e0,e415bc7a-a0a8-46c5-a799-627c6b7dbde8,660 Shelley Court,,,11/29/2015,a497db1d-9bff-42b3-a016-3ce67c35bf92,,,false
c5155dd5-cc23-4820-8da0-9572436f35d8,62c43ae6-4e25-4563-a091-1ac6d5b0c262,914 Montana Street,29.79923,93.85241,2/10/2016,14973946-4b72-4d29-832e-6c190eb22d60,,,true
068c85e0-90f5-4456-ab59-bbfade373ef5,74d67b1d-0028-4c4b-95f9-cbd9aa344ef1,7 Welch Avenue,13.5006,120.9548,7/2/2015,62f702ea-ec92-4351-8a9e-4d3c3ddbd96d,,,false
3c1dac5a-3cec-4094-b3b2-fe76df74af73,c6ba26c3-70fd-4dec-863a-83ba2f8f5856,7558 Bartillon Pass,27.2855,61.9965,1/13/2016,b601502a-0f2b-4669-811d-edfa39ddf60a,,,true
7a1864fd-2b26-4e6a-a8e0-685b71ff37f8,af840ec9-119a-446c-8792-ea03d2ca63e6,4 Center Road,23.98374,113.9318,5/22/2016,86e75afc-3f24-4c8d-9320-67293cfba8c9,,,true
de981d5b-3087-4d23-811d-550e7fa5ea67,6c3ccf64-c617-49e5-8d30-bc662bf3a1dd,47244 Londonderry Parkway,47.5426,42.0285,7/20/2015,519f0e57-3662-4913-aadd-ee43cab87237,3/28/2016,85cb8fa4-55cf-436e-b053-c012edb7ee55,true
5dd4bbf4-1f95-4c33-9554-cd7245328c86,77dbd80f-0c2d-403c-8015-55996dac3b0a,961 Hintze Way,50.05494,72.96464,11/17/2015,6433dfd9-8c8e-428e-8bb1-2d424a34a1b7,11/11/2015,85d4692f-2515-4401-8760-99db930a91b8,true
cf6c8d3b-96c8-461c-8f98-8c1178b4482f,f1869ea5-ca94-4a95-8e54-05ab217c9c15,1 Vidon Crossing,20.8425,109.84694,1/21/2016,dcda0ab1-84b5-4930-a149-a1e3bb1c2680,,,true
5ca1c8b3-a6a6-42b2-843b-9cd828bc83f9,cf47d49c-3877-418a-b165-048cedbe32d8,92 Bunker Hill Circle,-13.215,-74.28917,10/21/2015,9ea2ccee-64e6-423e-87b9-8fd9fba59a91,,,false
bbefd664-8800-4312-9c1d-78bad64de5b8,811b3423-1140-472b-a7a3-a7437ceea08a,641 Macpherson Parkway,53.99006,18.16958,8/12/2015,c0fc0c54-007e-40fb-a74a-896720ea7666,,,false
2d41c49c-50f1-4441-bff3-c4c37b667060,bc3f3d16-4dc1-4b22-847a-bda2a7f27642,1 Doe Crossing Trail,-25.40222,32.80722,2/27/2016,7f0959ff-4edf-49ee-9ca4-40e1194bc8a9,,,true
8a9bfa54-8953-4cb6-a351-7768ba36fa6a,85d9b976-f066-4bf6-886d-7d35b99fc7e1,08 Green Ridge Road,30.53393,113.18022,12/19/2015,4bdd2926-abd2-44b2-976a-e73cbff94fbe,,,true
036be006-9a59-43a1-b4a1-980aa4aaab1a,9f8a0b3a-8ac8-40d3-b80f-651dad0bf3e2,157 Moose Lane,6.74569,4.87748,10/9/2015,9d9b20a5-3d5b-4132-818f-02833ee704fc,,,false
59cea1de-5b75-43ca-bbe8-d7baaafc7d5a,51be2915-4c52-4cda-b5f6-46d810cf206e,59 Maple Trail,49.70887,39.85922,8/19/2015,15881c8d-0d7c-495e-8b07-44baa34adc4f,,,false
549f2ed3-8ab2-4b73-bb89-a2e0004f2eaf,6eb9c82c-2fd8-4d59-8b33-e876e4414589,6733 Monterey Center,-0.69832,-77.14083,8/2/2015,fbc65c86-ff71-4570-b46a-fc5c57aee982,,,true
71df9d13-7f5d-4475-8854-acbabf2f6454,ca118feb-3795-46f0-bb18-f0e47091217c,74 Almo Crossing,39.1802,-84.4204,9/1/2015,aedfbcba-33ce-4c86-928c-601aff9c16f7,12/20/2015,5d3f296f-e2fc-4cb0-9313-1b525381fe0b,true
5ac7f3aa-64f8-468f-85b1-6fa2dbc924b5,393fbedf-f217-4710-be7c-9cee5a4918e4,780 Maryland Avenue,53.53041,43.67664,7/11/2015,3c2937c7-aaec-48ed-91ac-0076c15380cc,2/21/2016,aec0506f-2112-41a3-ad8d-44a2f457a441,false
401be6be-278b-4589-80db-9418058c5f4d,c25924f3-7285-444b-951c-5d6d60cd8c98,12815 Arapahoe Pass,24.91861,116.88833,6/18/2016,d12783af-dd21-4ca0-bdda-e456ec9978b5,,,false
295af425-4044-4b87-a884-71944622329c,677f4567-13dd-4c50-87d7-05ad34050cbc,05727 Dapin Parkway,-28.76105,-66.05024,2/25/2016,3ffa082d-6622-4d19-82d4-24fb69c65d82,,,false
660f5bda-4272-47d1-bd89-f9b0bd7974e4,52139090-3487-464f-a954-79579cbb5b8c,42 Rutledge Junction,18.43324,110.06692,3/27/2016,d0e1c000-ba37-4a2c-bc4e-8705105ff460,3/27/2016,8b3680c1-cb34-4e80-8677-2bf3c92574f8,false
f87df570-fd14-4b51-82e6-84f80b088944,2ce1982c-0efc-4cac-8c90-3a63ef2501d0,8 Delaware Circle,,,8/16/2015,382bad16-085c-4f6c-be67-ef7a47fc9517,12/1/2015,92110d9f-8b25-4a88-b3f5-b464154d209f,true
a5c955d4-2f41-485d-bfbb-348aa8008095,f163d52c-ea30-43a0-b68d-f6bcbbed1fe3,105 Oxford Circle,8.43333,-82.4,7/14/2015,b0fb0ee8-4886-4b95-bb1b-64934eb79bfd,,,true
b2abc84e-0cca-4e09-b3a8-f5ab4ed3fecb,29258d48-31f0-4d31-8c09-a447cda6f00e,4849 Melrose Point,,,8/17/2015,09b725e1-5b45-49d9-a216-79b64e1bc419,,,true
6e56e8d3-a541-4c46-834d-d284467ad3ef,0dbda0ac-517f-4853-993c-2529a5e5ef59,15 Arrowood Circle,40.71806,20.43806,9/2/2015,85cb8fa4-55cf-436e-b053-c012edb7ee55,,,true
c065f8a1-b17e-4263-9a20-ae5f701f6e73,007e53ba-8cbd-4ede-a276-23763b36d5e5,192 Buena Vista Circle,51.4705,7.0221,4/28/2016,baf988cd-653d-4c79-8537-f9b600edf184,,,false
4df6d26a-3a4f-466c-bf54-68c56b992afd,71937451-16f1-4b46-b9c0-fa3d82e5bf4a,315 Armistice Alley,2.7186,101.949,4/16/2016,dd21a8cc-1ca6-44be-8e41-7c01eca6ee10,3/2/2016,ecfa22e1-1525-4568-832a-c22d111b011b,true
5e1baf1e-bd6a-4e57-9637-e299a1d23721,fced1a4a-0da6-4cb9-8917-f2e4d29e4511,28920 Becker Avenue,59.2793,18.0111,12/1/2015,43f874af-9c77-4f2b-9852-f21ea09f66a7,,,true
655a649b-5ca9-4791-b254-9563652ef62c,8e0a319f-7575-4eb7-9ab2-4631c0ba97fa,3260 Dixon Alley,41.2381,-8.581,12/8/2015,c8a1b99a-55dc-4a23-8b69-aa1b698c3b6d,,,false
dc021493-6fa2-4e2e-bede-018ec0205933,3c80a9ea-1b91-42fa-916d-2faa85961f41,370 Everett Point,,,10/9/2015,9c29a93a-f75f-48c5-badf-af4b723e7f4d,,,false
7d19dba5-0ac6-4e73-9ef4-bb596b992802,f237b96f-7e4d-4033-8f73-c5157e21a877,26600 Johnson Point,28.31034,121.00418,4/2/2016,c58fee75-e6d5-49ce-a1ba-1bc52f646ef4,,,true
90e9a66f-8a46-4851-8c09-69b2042e0a0a,c56ff481-cc04-489e-b6a4-6755d3bc5e98,395 Holy Cross Street,49.32509,28.08094,10/18/2015,65072aa9-a31d-4265-9e32-5536467003a9,,,true
b2ab5166-2f0e-40bb-b11f-f0629de30af5,2b1b40aa-a168-49f9-a35a-4d77e5fc0e1d,72 Dahle Alley,,,8/13/2015,3350b1c8-25c5-4a65-97fb-03614ef7fcea,,,false
c7c5fe27-90ae-4510-acfa-6b0e79821e83,0b481f47-5cdf-4c72-ace9-23dc57486ccb,379 Southridge Junction,35.01667,135.96667,1/6/2016,31fca2c5-5105-464d-8197-0036d3c56773,,,false
85c746e4-56be-4cf5-9ec1-0db799c85c0a,023632f6-a45a-4ecc-bb60-777ea14da958,92 Briar Crest Park,28.43333,112.15889,2/28/2016,f749ff38-d509-4ff4-9bff-0cf7e3ea8dc1,,,true
dff3e65c-32e8-4e8f-9b73-70c67c7e0231,10af787d-ea6b-491e-85f4-7f743eb142e2,03773 Loeprich Alley,25.9119,-98.3617,8/7/2015,60e7d625-dbc3-4a70-a7a7-2437498caa2c,,,true
b43596bb-df4a-4c93-9a59-0e8e4c1b2cbe,ffd0acde-baf0-41c6-8949-c1fe70fe95bd,4 West Court,,,10/11/2015,0059a595-531a-49cb-a3ee-4d50e3a2561d,,,true
8df70dda-0ba3-4ff6-9981-d2917c4ff184,83bfd3ea-8836-4c1e-a6d0-ebf2a2aec44b,7 Vidon Hill,,,2/25/2016,bc460f5b-250e-4818-9c36-0429319298bc,,,true
959e769b-4de7-4d60-a477-0c61fe0b9d66,cb34bd9c-78c6-4aa3-90f1-8abcba73fd40,168 Fallview Place,50.5634,2.4804,6/1/2016,dd3a80bd-606d-453b-8a45-ce4bf135bbfa,,,true
9415d8ca-880f-44f1-a057-dbc76dce9a9e,1f5ef156-5f67-4817-96c5-b74e7ccdeb91,59 Gerald Terrace,44.78833,44.92278,9/2/2015,c2b9dceb-193c-487d-8da5-b700f365271b,,,true
62baec83-63f5-445d-8a29-8c7c4923528a,d53f476e-567f-4fa7-bb84-c82ec60a4058,8 Troy Lane,37.6525,127.3075,3/6/2016,d6c959f1-5bbb-4729-b204-14e650e18457,,,false
4440ab1e-f245-417c-953e-c798663e9ad5,db0d3434-c34b-4978-9977-48511facd239,4 Vernon Road,6.08333,118.3,9/28/2015,e03117b6-f01f-42f4-967a-a011e7707b70,,,false
861e6a8b-e5a9-402a-9e70-131ddad31778,1777676c-d647-4bb7-9f39-61dad7bd8053,1 Corry Parkway,-6.7636,105.7211,8/19/2015,dadc269a-631e-4b7b-b3fb-418d6362704c,,,true
3eeabd28-123d-4fab-a31e-fe1612edc60d,55f2efd2-e0d3-4188-8ce5-71fea0f28bbc,700 Westport Plaza,,,1/15/2016,fab02f6d-35f8-4cf1-bfeb-e9b69d865e9c,,,false
7d831ae5-3e49-4ac2-9a8e-97cb20f1a972,08aed15d-ad13-453c-949c-595d9895bee3,84 Luster Avenue,43.51667,118.03333,2/13/2016,7d48e5b5-554f-4d66-ae07-c3ad46b66d50,,,false
3c5ed508-b01e-49be-a590-80eb45bc580f,82818dd5-d1d2-4b0c-ae6c-33f53dcae0ba,33 Kings Drive,29.50063,119.38978,9/21/2015,00dc57df-c209-4dea-a592-8a90d6c2b920,12/21/2015,baf988cd-653d-4c79-8537-f9b600edf184,true
a7424929-0f90-4b73-ac02-33c160ee3273,57b3b74b-7bf9-49d3-b459-20906e71e75b,764 Crescent Oaks Park,50.04747,23.4219,8/3/2015,adfc97a4-f7f2-4d00-9150-9dab7a7823ab,,,true
2367301b-6a47-47d8-a46d-77d388955cfa,615ccf0e-65d7-429c-a6c2-02a35cdbf78c,1 Basil Road,15.89749,105.29318,11/16/2015,7709e3ff-c7cd-4b19-8206-8905e6d1bc60,,,false
c7c5fe27-90ae-4510-acfa-6b0e79821e83,460ef3c3-6e2e-4b7f-ab03-4802b0cabe6f,2124 Corscot Circle,29.9,59.98333,5/18/2016,bf86390b-d625-4d4e-bdd7-2552ea49ca61,,,true
0cefcd86-baf7-43eb-a166-d0125e52ac50,e1cfb537-ab83-4d5a-9de2-7805d7ef5a8e,99 Linden Park,54.3171,26.1376,2/27/2016,517e21ea-94eb-43d3-b3c3-8f31ad4f3619,,,true
53f92c1a-c1f1-4351-8129-6b38fdb8a9e6,77ef05c5-6543-45f6-8905-7523e933a4f6,66 Dovetail Trail,55.7,37.85,5/10/2016,73474620-e0ee-4fc5-a10e-9892e645ea4a,,,false
4bfc91eb-a206-4df9-b598-5ade5ed625e9,7cb518d3-cf79-4c6f-a402-e6daa9cfd371,43 Farwell Point,49.78465,23.64806,10/18/2015,dd987a2b-67da-44d5-a2f2-66663ac05e98,,,true
848db0f2-d88e-4f4d-b479-bba1e8af1cf4,38845270-1937-4fd7-ab27-ed23db55a60f,743 Hansons Park,,,2/14/2016,cc55eeb0-1779-4cd7-8f35-098ffdaff8b3,,,true
abcf2968-21aa-4c63-be58-65fa311e03bc,f32de0c7-64b9-4ee5-ae3b-e3d812c366fe,4 Eastwood Circle,7.87139,9.77786,5/2/2016,2227f3d5-ce44-4ea2-82f6-071d163d8648,,,false
7f8d9c27-1180-4d6f-bcfb-9f401e97168f,7beaf8a5-ba51-41ca-839a-f3baf8e38a30,705 Victoria Hill,21.45139,110.69528,9/28/2015,e0052c5a-3ab1-4235-bb6e-5b3985af1023,,,false
a7f39287-fd94-465b-8eba-f3d2f865dbe6,509b5f72-80a9-4dc8-93bd-b2dea8f5c4cc,46468 Pepper Wood Pass,59.434,10.6577,10/30/2015,3b854eb0-4f5f-4c60-8fc6-388dec3e16fe,,,true
f174fbf5-4e47-4ab5-8825-61b3cc4d94eb,f2666420-f315-4ca5-996d-521c3a85df8a,32 Northfield Crossing,10.8868,124.7105,8/18/2015,2dc18a97-08ff-40bd-9b0b-e8abcc2b57ef,,,false
d2a49c50-ebe3-4733-8a30-5ee250726cb0,09f46322-c327-435c-92c3-a3463bbdc8c7,54 Garrison Court,15.3953,-92.4056,1/28/2016,4ff09748-4276-4cf6-ae18-e432782692c9,,,true
0fe8f1c9-bbcb-4ae3-abcc-c2d6d899fff4,90e42adf-8350-4fbc-8a80-8cd30e1938aa,72738 Aberg Street,52.75328,18.11328,11/20/2015,b0569ecc-ab4b-4ffd-a681-3368be14ffd6,,,true
097f6576-54c2-424a-8196-28c698d016b8,858ab5fb-0fa4-4e48-ab51-65dab55ada88,5426 Spaight Pass,36.98238,99.62898,11/7/2015,384c533a-a901-4fc8-82fd-f8bc24e2a449,,,false
0cee0575-f16b-4932-8974-04b51e6276ca,513e3f7d-af58-4875-9503-c545c638ac78,40172 Pearson Avenue,41.4833,-8.2667,3/9/2016,5c44690d-43b7-4bbd-bdec-54d2983f6b7d,,,false
4116282c-e1ac-4829-aebc-5e526265bad1,81b35acc-b22b-43bd-861f-cebdb3ff7987,1 Warner Terrace,42.48333,26.5,10/20/2015,d9e483b4-b874-4c20-a12b-52bfb442b796,,,true
6121773f-8f89-41ad-bdc1-ba251391e86b,ef2f1d9f-d5a2-45e8-95cb-d2dd9d42890e,51840 Karstens Crossing,36.26667,140.1,5/5/2016,9a4d6af6-fd0f-42e2-bcde-ab137c958819,,,false
7c0f3805-aa7c-4dd4-a3bc-031895d41c15,178dd6cf-4ead-4dcb-bf69-38b623571624,8 Waywood Center,47.52758,126.93364,11/15/2015,32c94505-2dda-4619-bf3e-e961df13cc2d,,,true
bd48b51e-8515-4609-b384-a17f2f7bd884,5da2d492-6895-410b-b068-2b0561eddf09,11444 Brickson Park Way,11.32583,125.61944,7/24/2015,463ab6f3-74cd-475b-a63e-bd0de8ddc820,,,true
71d079cd-7c5b-4164-90ca-8e0486538584,462e25be-9a33-44c2-b36f-72ca38e31b19,7876 North Court,-8.4788,117.4132,12/15/2015,a0b56268-ac44-454a-94b3-e42ebb29ce37,,,false
d817a6a0-6161-4d6a-92ab-27fcce1d818e,f96810a0-7aa7-44e8-ac69-716a5e65dcbe,4 Prairie Rose Hill,-5.38532,27.00028,8/18/2015,8341970e-b020-4422-b7de-c4d29e799f98,,,false
305e62c8-b199-4a38-9aab-d88f40d901eb,d5382b4b-f69b-42cb-88fe-98ba1e75059b,689 Porter Circle,53.88446,17.71786,3/26/2016,b223904d-58a8-4f94-865f-116c2adb4acd,,,false
63ba920e-d1df-43ac-9d90-55b91657468a,6f530d5e-aeb6-4c78-aaed-79c05d433773,26804 Dawn Parkway,17.15754,121.61354,2/5/2016,12c46bb9-0b81-43ce-9fbf-7a6c7ac8fdac,,,true
f49cde33-1ed1-409d-b265-18ca2e4bdf6f,3a492c7a-960c-4a7b-b44a-3a6c0581d196,439 Trailsway Road,,,4/2/2016,e6473e50-aafc-4173-bedc-7e163009d627,,,false
0bc544d4-677c-4388-8baa-345448e7309c,bf6d8a30-baa8-432b-ac38-acaa84ae65b3,966 Prentice Lane,-9.9367,120.151,12/8/2015,a11e7b22-aa24-4b6e-9da9-735659fd40ac,12/29/2015,2be433f6-3532-4533-b88c-13a3e17b22c6,false
403be6ed-c490-4cd6-aa56-5da5b83f3bdd,66860fc8-1633-4eb1-b837-7ed428132e46,91 Oak Avenue,49.69244,75.58438,4/9/2016,8dcbe8f4-edbf-4a52-a3ed-873ced79e24c,,,false
96048ef9-c464-48bf-942e-7d11bd75e15c,524f734c-5c77-4924-b6f2-f8289679d06e,10 Kennedy Crossing,29.31329,95.30741,12/19/2015,4034a42c-f2f2-40a4-9900-1211e0da8e96,,,true
e50c1152-c7ce-4c9d-857d-bbc9d17663d6,68bd8664-7364-4970-9cd3-637c760c97be,23 Westport Crossing,47.50722,28.27694,10/15/2015,3a79a65d-30eb-4f69-8e03-97509c473b04,,,true
676f5ef0-ed14-41e0-8e2b-c6ede01981cc,f8188a42-0d9d-4c44-9222-a6dde6e761a6,717 Derek Crossing,36.02952,106.69967,12/8/2015,70195178-c5fe-4c0d-a4d7-ff7b7b046b99,,,false
878afb09-8565-479e-aeee-e64284c72724,b8b35988-29e8-4638-8030-f4384859e357,82 Pearson Avenue,40.50139,22.54,11/23/2015,893bae9d-01d7-47ac-98d0-1c6335ee7745,,,false
c0882887-02e7-4eb0-b7e9-49e85206f510,f79c381a-f1ed-43eb-89aa-a8e36c33c75e,877 Clyde Gallagher Street,51.7676,55.3694,7/27/2015,0825549e-2671-4bea-a68f-53dd13a776dc,,,true
a46761c1-a4a9-4141-9df0-342bbcc78fc0,be1e0a2b-0a7b-496b-936b-ad9a00caa978,2122 Chive Hill,35,134.55,6/29/2016,3ba02dc1-ee5c-409d-b4bd-18ac0c1ec19b,4/20/2016,59b5ee50-7cda-4008-ac51-3b2eba9d761b,true
a27fe5d5-16d2-4851-b213-ba0d560e7335,74bee48b-20c8-4e58-bd38-a46b4bda03d0,6 Ohio Point,24.89896,114.87812,2/20/2016,30224248-4f1f-495c-9630-266e74704c33,,,true
7cc74931-cef7-44d5-96a2-dfe0c43a724f,0f8e03b0-97ce-473b-b695-534880a39ea0,7391 Brickson Park Hill,34.55722,108.49694,7/26/2015,95f6ee3f-0e1c-4a66-8634-bba9f1f45649,,,true
31bf14bf-fb6f-4979-bf98-a48a3de0c261,a6bdadd7-cb8a-47ed-acb4-96f3fa02b5e8,6 Spenser Junction,,,11/28/2015,a7cfc0a9-7563-4b00-9fc2-c1d2730a72b0,,,false
78e25a60-f979-45a6-9983-d19462d21273,b6b05cef-4046-4c8f-b613-8f11eb1dda73,04 Tennyson Way,7.15444,125.05583,1/21/2016,b5976495-b5f7-4bad-9dc7-221a953f26b4,,,false
76ba612f-2334-405a-bf90-b88bbd965b2e,c8311fc3-ca77-4643-8b06-fd56baa7fa2d,27 Texas Parkway,,,12/28/2015,86126ae1-a04c-4dd4-a374-6c227561e09c,,,false
35007221-22fc-4e77-a02a-c8a38d57a8fd,fa5c6463-e64c-4051-b553-0ed75cff0d39,0611 Cody Circle,34.24749,70.87218,2/17/2016,32b1ba9f-ac4c-4711-87ea-1622e23d48df,,,true
1ed14dcf-5ea0-4e1f-83fc-ee36d286eaed,4502e2db-2c74-410e-947e-7e413452cbb4,96990 Blue Bill Park Alley,15.24467,105.22908,6/11/2016,6de6ff4d-027f-4b94-8f64-477d45c823f7,,,true
749479a6-b2d3-4f64-8284-b243cc73ed6e,04beb21a-483f-4a46-bb85-26804e8d9db5,3031 Dixon Trail,48.56821,32.90273,7/15/2015,daa6e071-7b92-4e77-89b6-b1cd8b5174a0,,,true
e536c52f-984f-4f6f-a097-00734db7ea9f,c1f3a76d-a8f4-45ff-a00c-309f3113f62a,63861 Corscot Point,22.12948,112.80747,1/1/2016,929107b2-b575-4c1d-9de5-646d699a34ec,5/26/2016,3e26fbf8-79a1-4485-aa9b-2af455b31cbd,false
ea9aafd6-f74d-4d2f-ab2e-0b02cc2cf3bb,56fcf5aa-020c-48f3-b67b-74e6d2fc5ab4,932 Magdeline Street,-7.0052,111.512,9/19/2015,c61be839-23e5-49de-b621-2d58614d9fc5,,,false
cebaedc3-8ca7-433c-9ef3-22ec51a4cf5a,8b2e4ca2-9050-4cba-9f22-4ca166a5848a,2 Lukken Junction,39.5167,-8.5167,9/3/2015,66b9eb1b-5766-4f13-bcbc-169684445f75,,,false
823cf0a1-0d56-42bf-a6c3-429e80755fe4,e7dfe227-4e59-418c-a119-ca43d3fe5c5f,0 Manley Way,30.68916,118.40431,9/10/2015,46743718-76fe-46ae-9930-673f31e8bc18,,,true
4440ab1e-f245-417c-953e-c798663e9ad5,81196144-2d49-4cfe-b68e-98e88294a399,0061 Packers Avenue,-7.385,108.127,7/23/2015,e415ab81-eb91-4d9a-802b-0a5e55d2b01c,,,true
ad6669a2-d67e-4cf0-a417-c215f2e26b15,64353c4b-448f-42e5-8037-7449a35fe9fb,36403 Sunbrook Place,,,5/3/2016,79d753db-146c-4ddd-a82b-d61e8bc51783,,,false
b592eef3-ee05-4963-8149-76f79bc80589,725be84e-9447-4e86-a182-f77dc3b27abb,6 Almo Pass,41.58333,25.13333,1/1/2016,7331aa90-0c5e-482f-94ca-e61ff64f1046,,,false
f6c66517-e666-4460-99c2-376d035685a3,00271196-82ce-4224-8809-e566ae3db23d,01441 Clarendon Junction,7.25167,124.24389,11/23/2015,b22546dd-0cfb-460a-9ae4-5d2c3907307d,,,false
6c4d3f3b-4cdc-4c12-a1a8-62c9a2565552,a3757c27-27de-4bd5-84b6-5454bb2495fe,9 Talmadge Place,-8.8644,121.5214,2/7/2016,850e7ed3-b29a-46fb-ad5b-b28a8a5e0902,,,false
c2c178d1-e148-48f0-b3a3-5b268661571c,f58b1c15-0513-4db9-824f-e07f80902985,55247 Harbort Circle,-31.24508,-64.46563,1/29/2016,a1162b6e-6ea1-405c-9bac-210f64dbe760,,,true
09ec9876-e581-4cdd-95e9-a397b51c39aa,b0047027-c466-403e-89d7-bd9265db69a3,3090 Rowland Place,31.6948,-106.3,8/28/2015,a5947aae-1367-4ada-8225-6554a79f2dfb,,,false
b37c2b6a-eb0d-48e9-8553-a0b4f7316cee,3daaf64c-ae19-4774-a3dd-16b256cc41cd,845 Transport Road,39.16673,117.24191,12/7/2015,8305fdd9-4640-4dda-87f7-bf088369c9b7,,,true
e40a6c37-3299-4db4-9e82-1d008685a722,1c4b28ae-316f-44c6-a6ca-a4cb5971c1cf,69 Gerald Terrace,5.91793,0.9879,1/21/2016,af8580de-9c2b-4004-96cc-7c54331d028f,,,false
80f09dfa-01a8-4844-8090-98a7fea11b07,38e1c124-1b8e-4f66-a35e-ba72a000a2a6,84 Carpenter Way,37.86913,116.15058,7/14/2015,85d1d6d6-df25-4575-b33a-928a3be6d418,,,false
6ee1693a-6d8c-42b9-9152-38b8841a2f62,ccb911a0-ac79-4695-8289-c99e7b81a8ab,71915 Hazelcrest Hill,-34.665,-56.21944,11/17/2015,37267bad-146e-4052-b95f-9f582267ea56,,,true
862bf79a-8a75-480d-b7d5-3035db4b07d8,45fca396-f68b-44f6-9edc-26ccd445a055,31 Macpherson Drive,51.47315,17.63383,9/3/2015,e92f4730-43e7-401e-ab1a-efee1e7e1406,,,true
61feacb8-b951-4650-89ac-2dc6f590955b,b7120aee-61c4-47e8-9a94-52833843d8b4,8 7th Circle,49.54083,6.25972,6/21/2016,43cd848a-74f1-4fa5-8efa-1b810cd4365b,,,true
879dfc35-c4b8-447b-bbd7-b1e82ba59c7e,3ceb224c-2fc3-4fc7-a1b5-7e67ee019991,335 Hoepker Avenue,40.6324,-74.1172,11/6/2015,d1dab693-45c0-487f-9bdb-09b5cf83adfa,,,false
305e62c8-b199-4a38-9aab-d88f40d901eb,84cfda1d-757e-4d9d-b864-6814fe210209,14 Dahle Drive,44.55618,16.73349,5/1/2016,43b68b48-0b8a-45ec-b01e-54c23023ae3a,,,false
c34f39fa-8da5-4ed5-a510-245e68e1b924,0372b33f-b3c3-4c0b-9eba-9d0aecff878a,5 Di Loreto Avenue,,,5/3/2016,a75cc602-78ea-456d-9885-3aadadd5005c,,,true
c365c3c1-f060-4db1-9e98-9322a3168daa,37ddbb83-1899-4d1a-a898-67876367c3a1,89135 Carberry Avenue,32.42464,35.36421,7/14/2015,039732d9-fa2a-4963-98c2-941d9103a933,,,true
69474901-f112-4a90-9e92-5007322f4f80,87a93082-cde3-4e01-8bbb-8cb7e148f9d0,7009 Hoffman Center,-6.9877,112.3043,12/4/2015,b601502a-0f2b-4669-811d-edfa39ddf60a,,,false
59199f03-bb68-40ce-b9d7-2d187f2df7e5,b37069a2-bc1c-4177-bb60-a12b7d1cc8ff,1130 Anthes Road,32.51667,120.38333,8/29/2015,85d4692f-2515-4401-8760-99db930a91b8,,,true
dfd301d5-2397-46d3-98c0-c9964c6df464,6e44081d-19a6-4fd3-80d3-ac6214ea0cc3,10408 Burning Wood Court,31.3258,111.83147,12/4/2015,0f3e1ec8-912c-42ac-89cc-1491f52bd155,,,true
51a95404-b7dd-447d-b12a-ce425c5e6bb0,deb9f9eb-3507-4682-806c-a6b214ce8e0d,984 Oneill Drive,14.5945,100.33825,12/16/2015,2227f3d5-ce44-4ea2-82f6-071d163d8648,,,true
24a196a2-a782-4f06-847b-b2c19f9cb2db,610753b6-d35c-4540-ab31-a036889ef8db,1640 Mcguire Lane,51.96696,17.81648,7/17/2015,d79fa1bb-d270-4b89-bcce-a27b79c012a9,,,true
3baf5e70-4eba-4675-99d2-6e72e0032bbf,73594e32-464f-414d-b796-0839a898fe67,67 Mayer Trail,7.29417,125.62583,2/8/2016,8d2166a2-06d1-4cfa-af0e-500b5edf518c,,,true
846bce91-2436-4544-8dfb-c28036bb7717,f2ddf686-661e-4920-9789-6dadfb5d37dc,588 Surrey Drive,-12.15278,-44.99,6/16/2016,c7d16ea0-3f75-4bac-8d9a-e90282e61a6f,,,false
adf5d5e0-5bbd-48a9-81ba-332b97685a9e,127ffe48-a3ff-4175-82f5-03183b832e99,821 Mayer Crossing,59.8585,17.6454,1/9/2016,43cd848a-74f1-4fa5-8efa-1b810cd4365b,,,false
c3b49b45-42b7-468f-a42d-7ab43668f01c,5f993490-b602-49ef-a052-86d1e0a3564e,8 Bellgrove Street,40.22016,116.40616,6/18/2016,01b78772-324d-437b-a4a3-dbde3c26620d,,,true
82c0bdb9-381f-4752-8e2f-f376c925b132,f482cfd1-fd62-45b5-a1c3-bf1c51675715,78 Raven Crossing,27.855,109.74028,6/10/2016,e248dd5e-786f-41ba-a77c-91728026ba2d,,,false
09ec9876-e581-4cdd-95e9-a397b51c39aa,4770a58f-95e0-4ed4-9fc4-aedc015db9e3,23 Fallview Road,9.84752,39.76027,6/4/2016,b11e4bc0-45da-4429-b9bd-cce74833f71c,,,true
677f872d-cca2-4f84-a8f9-09b5a93ee436,25bd17d5-32f2-4cf4-b0fc-00c1bf930c20,5 Shelley Lane,32.44565,64.74486,4/7/2016,00577adf-fc15-469d-a015-13fca20ef91e,,,false
32ab24a4-988a-4563-89fd-381cc6576c1a,e16b0115-e3ea-4ea8-96df-0ff3d6658999,10804 Marcy Way,42.8805,-8.5457,10/24/2015,549b204f-b287-40b0-81a7-35d780e788a5,,,false
e48e2fa2-9c9b-49a3-a667-51485f8ae126,60ceb169-5b50-4804-ab0d-530d29cbf2c9,69159 Dovetail Terrace,28.00653,116.2928,10/25/2015,07cabfaa-4d92-40f9-87b0-14641b9746ae,,,true
d082e077-eef9-4fd8-ac3d-562cf079b10b,477c242c-e4cf-4017-9ed8-e486fe7ffd06,168 Warrior Court,18.3637,-78.03736,12/8/2015,6d44e21e-f174-43c6-b9b7-4c226da5c554,4/3/2016,7af89f7c-9ea2-460a-b04f-a4b7028bf0a7,true
8df70dda-0ba3-4ff6-9981-d2917c4ff184,4edfc41a-2afd-4d02-86df-ace6d07f04d4,011 Golden Leaf Crossing,15.17042,120.68571,5/6/2016,916d515a-1782-4d4d-a76e-3be9026087d8,,,false
621ebcfd-7f5c-4c3c-841e-9d799f21c4e3,b5e3ae82-1cd3-4951-a66a-7dbb41a9b093,1780 Derek Place,-6.9263,111.398,10/12/2015,6e81ed8d-f9f6-4790-a5d8-d7e0ad4e2d2a,,,true
3b5e9043-3ea1-4ff2-a60c-1a60bbb1fa0f,833b26f3-6be8-4233-b0e7-d4775d0f0d09,7604 Quincy Trail,,,12/17/2015,5fa60012-7484-47b2-97ac-92285036354f,,,false
068c85e0-90f5-4456-ab59-bbfade373ef5,f15bf422-8192-4468-87f1-1182b5617812,45928 Welch Avenue,14.5832,121.0409,11/17/2015,e92f4730-43e7-401e-ab1a-efee1e7e1406,,,false
46b19d2b-7e83-4641-8e9a-03b357c3113e,cb536dbd-d445-48cf-b6c6-3b890e5aadce,4 Calypso Center,49.25,4.0333,12/29/2015,7f3f00e9-42fa-4eea-b83b-a506b2dd31d3,,,false
3baf5e70-4eba-4675-99d2-6e72e0032bbf,d730c221-dd34-4b9f-9db6-89ce26042b58,0783 Thompson Circle,30.24487,108.38954,2/6/2016,43b68b48-0b8a-45ec-b01e-54c23023ae3a,,,true
ad0b8031-7ab7-4d36-a9e8-3ad2d53bf72c,6b081b3b-ea5f-4793-abe5-b073dd6d7995,13819 Brown Alley,,,7/29/2015,e2420436-c68d-475a-b69c-04ba6bd441ef,,,true
370322c9-4f34-4ab8-a182-4ad1869eec73,e1da61bf-9173-445d-aec9-d4f8ae841168,67910 Memorial Park,44.2663,18.42961,4/26/2016,b677286e-72d9-48aa-b5e2-b16ad7f04989,,,true
ad80974b-f9f8-4342-87f3-7dbda0ea5171,e21d5b7a-5d77-4c66-9f59-808649e3be8c,9 Reinke Center,31.52569,120.26282,10/28/2015,43f874af-9c77-4f2b-9852-f21ea09f66a7,,,true
e48e2fa2-9c9b-49a3-a667-51485f8ae126,8efc0fb0-6d52-4d18-9c67-df6552dc3fda,022 Lotheville Center,,,6/4/2016,805644f0-4caa-4949-bbbf-1d91d513e016,2/20/2016,d6c959f1-5bbb-4729-b204-14e650e18457,true
4163a181-e529-45f4-9327-b2e42a523c55,e01ae829-cf96-4a15-96a2-b6cfbac56f8b,5420 Charing Cross Pass,,,3/13/2016,a27aaeb0-1a7e-420f-a61a-eea3c9b8a871,,,false
28166750-ec16-4350-a3f4-96a21daa244c,74afb7e1-1fdb-4d8c-8bb5-c6dd0b035faa,03130 Loftsgordon Circle,55.6759,12.5655,7/5/2015,a12790e7-4589-4893-bdfe-80d55f832f57,,,true
eb362fa7-81d4-4e14-bc33-07a865115aec,3f00c386-7583-4ba4-90ac-bfb3341ccebd,23815 Arapahoe Terrace,33.17288,105.78184,5/22/2016,8f2ca41e-323c-450f-a650-e75e779178a3,,,true
b2ab5166-2f0e-40bb-b11f-f0629de30af5,fac2dd7e-8b11-43fb-a67c-dce3d28a3697,39 Twin Pines Junction,35.36211,35.92759,3/28/2016,1e80ac98-be4e-45f9-a7d1-6a979306fe44,,,false
80b0a9fb-6933-495c-a3d0-1c850d0859cb,d3c576cf-5e7f-4595-a931-90cf087279b4,4795 Red Cloud Point,47.86951,124.85529,8/27/2015,0fe54679-8c5b-483e-8621-9f49716af3df,,,false
76a1043f-6611-4c7c-9e46-84be2c805e7b,1716fe31-8433-4c63-81ad-564e61ece91c,49 Carey Road,41.58528,24.69194,9/6/2015,363e9240-ad7f-4dd0-8128-6626aff65810,,,true
01e0f92a-b11a-4e8d-8e58-92c9115d9761,62d4a551-c3cc-44ec-8a10-66e86adb2509,3 Sage Trail,15.9065,119.8858,10/7/2015,92110d9f-8b25-4a88-b3f5-b464154d209f,,,true
91757eb2-59e1-48c0-832c-774a91c632c6,2ec2970a-4a4c-4171-ba77-fb0670d608d3,5 Graedel Pass,32.42228,35.38476,9/11/2015,534b4c50-1d7a-4034-a80a-177633eeb8ef,,,false
f2af814c-2258-49f1-a907-f78e80cec514,758dcbe7-3e0c-4b80-b5a2-929145e6793b,1 Bultman Plaza,25.5251,69.0159,11/13/2015,53f53bd4-c68d-4640-9880-b74fd5f9d8bd,,,true
f6d965b5-49f2-410e-b426-ff44b013dc1d,1114e0b9-d76a-43a8-9662-18bc6f5902a5,8 Lyons Road,50.38913,30.3705,2/17/2016,bc2415f8-884b-4359-911c-249588dc3cce,,,false
c44f0ee0-dcda-44a0-a886-fed5be4ff17a,c17d8e9d-62f0-41bd-83c1-a4f41ee49e83,6 Armistice Place,24.02452,88.99234,7/25/2015,81f0e861-4921-45d5-891c-4de30ac713d6,,,false
559e31c8-2ce2-4043-97fc-cf1b15488e7a,ba6e64d2-ee5c-4da3-9ecc-263bf19c9511,666 Rusk Way,53.34071,16.08793,7/7/2015,dcda0ab1-84b5-4930-a149-a1e3bb1c2680,,,false
db4c40c3-6597-422e-8739-38630be0478e,81eace98-6a34-4da1-b1a7-e9373b60506a,13655 Springview Lane,38.7,-8.9167,7/12/2015,777f45c8-9881-43ed-b52f-1d806258b14c,,,false
4f93d652-dbe8-4e32-8bf7-1fd7028aad42,ebc06185-5c84-4d48-aa52-cd970ea7452f,02 Vahlen Pass,18.1574,120.647,12/6/2015,fbf3311a-bc90-4ae4-9e24-0606043391d3,,,false
eb362fa7-81d4-4e14-bc33-07a865115aec,64151dc4-aac8-4d8f-b3b0-4a69f375290a,0788 Blackbird Point,31.20247,114.00305,1/18/2016,3e04519a-ea6d-4193-828e-897c504772af,,,false
bf86253e-d5ca-4485-ab2e-399e678bcf4e,04f8fb6c-5c4e-48e1-956b-d4e916cecb2f,7357 Nancy Terrace,-43.86225,-69.04602,6/12/2016,46ad6fb3-b26e-4f30-a33b-2b77a1427d10,,,true
e00f211c-d594-4e18-ad8b-fe7fa9900fa7,6c2117a3-4866-4ced-ac13-3606472a27c8,824 Myrtle Parkway,53.46013,16.09961,5/10/2016,cf6fbe2c-2cb4-442f-b12d-b59045f2acad,,,true
08bcc424-352f-4387-830f-df0a1e6bee45,c7011015-c010-4d0c-83e5-3ecf17ac2350,46727 Calypso Parkway,45.10548,16.67668,2/15/2016,50de95af-a4e3-4c7f-9649-1914ae77f312,,,false
ae50e880-290c-4162-858a-c4a66c2f1e3f,6119abd2-8a0f-4ce4-91d3-1da06d5d0007,59877 Annamark Plaza,18.46667,-69.9,7/27/2015,1c150307-7a76-4a47-9ac8-c1ec2d4bd958,,,true
c41d95e9-bbec-46bc-b01c-40352faf36a8,acc8947f-fe7f-4fd5-ac52-8f42500c6705,3 Merry Alley,38.04056,125.71472,1/22/2016,89437d09-b47e-4e83-a175-3d276eb91c73,,,false
c36f575e-dc6c-4ffb-8964-2b2226de4c65,1c3f8a82-0ed3-4a9e-9c99-e37dd8611893,7 Reindahl Court,29.79923,93.85241,11/6/2015,0d020bca-8e8a-4b7d-b1a4-9c488b9405b1,,,false
9086216d-ee05-4b21-bd84-d39990fe3196,af398a79-8faa-4578-a032-bdbc2bebcd29,5 Onsgard Parkway,-6.893,112.9638,4/25/2016,6cb8fa10-96fe-4d9f-87d0-c98c171b987f,,,false
d4de4371-91db-4a67-a42b-4e07835a6f18,92d0fa93-f087-4c7c-b5d1-8b1e297aa242,45522 Sage Hill,-17.63333,-149.6,9/2/2015,0f65681e-7ecc-456a-bcd2-4042fbf1774d,,,true
c6c18d0e-9154-4b48-aa91-0484399c059c,75eb02b7-fca4-4b3a-a5da-014d3ef19def,34906 Vera Court,20.61441,105.27948,3/24/2016,7db739be-0348-4323-8c67-df0aece53c54,,,true
6e17e482-0913-4cd3-98b2-370ebc74e0d2,34914a11-22a0-4c75-85a6-f679b8148ec0,923 Little Fleur Drive,-18.08639,-39.55083,1/6/2016,a7c21c45-ab5b-4fec-b83c-b261a0ffd0f5,9/26/2015,65f42e63-cb47-4463-bdb7-57df889dcf78,false
bf11e6ed-be23-4e84-8da8-0a0d7778010e,aebafa00-ae74-4094-a591-bb889ed2342b,4714 Thompson Terrace,29.9871,121.31138,6/25/2016,f323fead-bc40-4e13-a7da-e7fa2be9bde4,,,false
9840ba80-b25b-4c99-9196-87b494456dae,a9a69fb3-135d-4b7f-844d-5394cc02e0c6,69 Westridge Hill,12.29434,123.34121,10/25/2015,c2e773d8-6cbc-4306-8a5f-c273889e318a,,,false
82a03ee4-ca01-4b1a-bd8a-39b840297937,d1c49dcb-6a75-4412-a82c-b57ad5ed3b1a,6121 Merchant Circle,,,12/10/2015,dd987a2b-67da-44d5-a2f2-66663ac05e98,,,true
fce5d40d-ad95-4c8b-a25d-3957a5445b6d,91db47fe-0051-470e-bf9a-b31fd38be5fe,663 Summerview Place,29.44472,121.03417,5/27/2016,56451914-8d0b-4cf5-88d6-e66dad794909,,,false
5cecc7b1-9d67-4d44-84be-301bebfaa8a6,e518900f-7c83-42ac-b0b8-a1e8589c5938,54988 Fuller Alley,7.05,14.43333,8/10/2015,ae0112e5-46b7-4789-b388-790f73e41e22,3/7/2016,2bfb9f6b-2946-4b5c-8765-0df835259c6f,false
deeb8d71-356d-4f1d-8f0f-ce2e3ac1d920,b0a2738f-4581-4082-a690-5b992ec0ce30,174 Mifflin Park,41.0932,-8.5045,8/17/2015,3253c2d7-5642-4fbd-bcb3-f18dd8fae3dd,,,true
4b5e517e-c396-430c-a71b-13f07fddb802,163aed89-e610-428a-a0b5-957e940de1f4,82 Moulton Avenue,-6.92694,-79.12861,9/7/2015,24e2915b-ba98-4396-9485-36035bd38979,,,true
9e3fd059-a30c-43ce-8dea-54eccfa846b7,2c8a4ae7-2e0a-4420-9232-c8488b1afba4,06 Delladonna Terrace,53.7496,28.0115,8/11/2015,4610a585-d492-454a-b9ab-65c42eb7fa4d,,,false
18fd375d-ad01-4cc2-a4fd-15f77aa6b137,f4ed4e41-3ae6-42f8-a43f-84e44c9e126f,164 Lukken Place,-10.37111,-76.44361,6/22/2016,629f9018-e17c-4b09-b293-645da6f90367,,,true
da5d5260-c78f-4c2a-9b90-f6d676ec3ae4,765e2c5e-b7ac-4cd3-b417-c17322d88781,68517 Bluestem Street,-27.22896,-66.83131,7/12/2015,9223509c-790d-4c19-bd9d-3a1f7748c33c,,,false
a44c5e09-671a-4404-9302-25c8b0efe08f,98a19384-17c5-4cc4-bab8-79ac0a49de39,09248 Thompson Trail,30.45143,114.87035,1/19/2016,51689133-e69b-4db4-8db8-cecd08326f9f,,,false
64e4e35a-481f-4611-93c2-de775220c1bc,9d246185-4904-4424-ae3b-e2657ddced5f,8546 Anniversary Junction,58.8394,36.4321,7/6/2015,cd75907c-c7a3-49f7-bacc-c4f7b0285d51,,,true
e3fbf476-cfc8-43e8-9090-8bfebdbc1d90,39ed21a7-dc82-4f68-9652-d721e1d21877,5 Thompson Center,25.19244,118.36319,2/24/2016,57320192-3176-4112-ab67-fbc0c32a572f,,,true
7c9fc964-9ba8-49b9-a419-f36fde2e4669,b389aaf9-1850-4efe-b026-a7e9429a5f09,110 Dexter Center,49.85109,14.40543,2/1/2016,6cb8fa10-96fe-4d9f-87d0-c98c171b987f,,,false
b092484f-e8ee-4c8c-9345-07c75a7fd316,98e0f340-13b0-4b1b-abf5-4809dbc52f12,4 Prairieview Court,,,5/7/2016,a3515223-018e-45ba-acd0-5e036e5ca130,9/12/2015,1c150307-7a76-4a47-9ac8-c1ec2d4bd958,true
